$GPGGA,084920.738,4817.869,N,00430.428,W,1,12,1.0,0.0,M,0.0,M,,*73
$GPGSA,A,3,01,02,03,04,05,06,07,08,09,10,11,12,1.0,1.0,1.0*30
$GPRMC,084920.738,A,4817.869,N,00430.428,W,666.9,036.7,280524,000.0,W*63
$GPGGA,084921.738,4818.034,N,00430.304,W,1,12,1.0,0.0,M,0.0,M,,*74
$GPGSA,A,3,01,02,03,04,05,06,07,08,09,10,11,12,1.0,1.0,1.0*30
$GPRMC,084921.738,A,4818.034,N,00430.304,W,666.9,036.7,280524,000.0,W*64
$GPGGA,084922.738,4818.200,N,00430.181,W,1,12,1.0,0.0,M,0.0,M,,*7D
$GPGSA,A,3,01,02,03,04,05,06,07,08,09,10,11,12,1.0,1.0,1.0*30
$GPRMC,084922.738,A,4818.200,N,00430.181,W,666.9,036.7,280524,000.0,W*6D
$GPGGA,084923.738,4818.366,N,00430.057,W,1,12,1.0,0.0,M,0.0,M,,*77
$GPGSA,A,3,01,02,03,04,05,06,07,08,09,10,11,12,1.0,1.0,1.0*30
$GPRMC,084923.738,A,4818.366,N,00430.057,W,666.9,036.7,280524,000.0,W*67
$GPGGA,084924.738,4818.532,N,00429.933,W,1,12,1.0,0.0,M,0.0,M,,*74
$GPGSA,A,3,01,02,03,04,05,06,07,08,09,10,11,12,1.0,1.0,1.0*30
$GPRMC,084924.738,A,4818.532,N,00429.933,W,666.9,036.7,280524,000.0,W*64
$GPGGA,084925.738,4818.697,N,00429.809,W,1,12,1.0,0.0,M,0.0,M,,*71
$GPGSA,A,3,01,02,03,04,05,06,07,08,09,10,11,12,1.0,1.0,1.0*30
$GPRMC,084925.738,A,4818.697,N,00429.809,W,666.9,036.7,280524,000.0,W*61
$GPGGA,084926.738,4818.863,N,00429.685,W,1,12,1.0,0.0,M,0.0,M,,*7D
$GPGSA,A,3,01,02,03,04,05,06,07,08,09,10,11,12,1.0,1.0,1.0*30
$GPRMC,084926.738,A,4818.863,N,00429.685,W,666.9,036.7,280524,000.0,W*6D
$GPGGA,084927.738,4819.029,N,00429.561,W,1,12,1.0,0.0,M,0.0,M,,*72
$GPGSA,A,3,01,02,03,04,05,06,07,08,09,10,11,12,1.0,1.0,1.0*30
$GPRMC,084927.738,A,4819.029,N,00429.561,W,666.9,036.7,280524,000.0,W*62
$GPGGA,084928.738,4819.195,N,00429.437,W,1,12,1.0,0.0,M,0.0,M,,*79
$GPGSA,A,3,01,02,03,04,05,06,07,08,09,10,11,12,1.0,1.0,1.0*30
$GPRMC,084928.738,A,4819.195,N,00429.437,W,666.9,036.7,280524,000.0,W*69
$GPGGA,084929.738,4819.360,N,00429.313,W,1,12,1.0,0.0,M,0.0,M,,*71
$GPGSA,A,3,01,02,03,04,05,06,07,08,09,10,11,12,1.0,1.0,1.0*30
$GPRMC,084929.738,A,4819.360,N,00429.313,W,666.9,036.7,280524,000.0,W*61
$GPGGA,084930.738,4819.526,N,00429.189,W,1,12,1.0,0.0,M,0.0,M,,*7C
$GPGSA,A,3,01,02,03,04,05,06,07,08,09,10,11,12,1.0,1.0,1.0*30
$GPRMC,084930.738,A,4819.526,N,00429.189,W,666.9,036.7,280524,000.0,W*6C
$GPGGA,084931.738,4819.692,N,00429.065,W,1,12,1.0,0.0,M,0.0,M,,*72
$GPGSA,A,3,01,02,03,04,05,06,07,08,09,10,11,12,1.0,1.0,1.0*30
$GPRMC,084931.738,A,4819.692,N,00429.065,W,666.8,036.7,280524,000.0,W*63
$GPGGA,084932.738,4819.858,N,00428.941,W,1,12,1.0,0.0,M,0.0,M,,*77
$GPGSA,A,3,01,02,03,04,05,06,07,08,09,10,11,12,1.0,1.0,1.0*30
$GPRMC,084932.738,A,4819.858,N,00428.941,W,666.8,036.7,280524,000.0,W*66
$GPGGA,084933.738,4820.023,N,00428.817,W,1,12,1.0,0.0,M,0.0,M,,*7A
$GPGSA,A,3,01,02,03,04,05,06,07,08,09,10,11,12,1.0,1.0,1.0*30
$GPRMC,084933.738,A,4820.023,N,00428.817,W,666.8,036.7,280524,000.0,W*6B
$GPGGA,084934.738,4820.189,N,00428.693,W,1,12,1.0,0.0,M,0.0,M,,*7E
$GPGSA,A,3,01,02,03,04,05,06,07,08,09,10,11,12,1.0,1.0,1.0*30
$GPRMC,084934.738,A,4820.189,N,00428.693,W,666.8,036.7,280524,000.0,W*6F
$GPGGA,084935.738,4820.355,N,00428.569,W,1,12,1.0,0.0,M,0.0,M,,*7A
$GPGSA,A,3,01,02,03,04,05,06,07,08,09,10,11,12,1.0,1.0,1.0*30
$GPRMC,084935.738,A,4820.355,N,00428.569,W,666.8,036.7,280524,000.0,W*6B
$GPGGA,084936.738,4820.521,N,00428.445,W,1,12,1.0,0.0,M,0.0,M,,*73
$GPGSA,A,3,01,02,03,04,05,06,07,08,09,10,11,12,1.0,1.0,1.0*30
$GPRMC,084936.738,A,4820.521,N,00428.445,W,666.8,036.7,280524,000.0,W*62
$GPGGA,084937.738,4820.686,N,00428.321,W,1,12,1.0,0.0,M,0.0,M,,*79
$GPGSA,A,3,01,02,03,04,05,06,07,08,09,10,11,12,1.0,1.0,1.0*30
$GPRMC,084937.738,A,4820.686,N,00428.321,W,666.8,036.7,280524,000.0,W*68
$GPGGA,084938.738,4820.852,N,00428.197,W,1,12,1.0,0.0,M,0.0,M,,*7E
$GPGSA,A,3,01,02,03,04,05,06,07,08,09,10,11,12,1.0,1.0,1.0*30
$GPRMC,084938.738,A,4820.852,N,00428.197,W,666.8,036.7,280524,000.0,W*6F
$GPGGA,084939.738,4821.018,N,00428.073,W,1,12,1.0,0.0,M,0.0,M,,*73
$GPGSA,A,3,01,02,03,04,05,06,07,08,09,10,11,12,1.0,1.0,1.0*30
$GPRMC,084939.738,A,4821.018,N,00428.073,W,666.8,036.7,280524,000.0,W*62
$GPGGA,084940.738,4821.184,N,00427.949,W,1,12,1.0,0.0,M,0.0,M,,*76
$GPGSA,A,3,01,02,03,04,05,06,07,08,09,10,11,12,1.0,1.0,1.0*30
$GPRMC,084940.738,A,4821.184,N,00427.949,W,666.8,036.7,280524,000.0,W*67
$GPGGA,084941.738,4821.349,N,00427.825,W,1,12,1.0,0.0,M,0.0,M,,*7F
$GPGSA,A,3,01,02,03,04,05,06,07,08,09,10,11,12,1.0,1.0,1.0*30
$GPRMC,084941.738,A,4821.349,N,00427.825,W,666.8,036.7,280524,000.0,W*6E
$GPGGA,084942.738,4821.515,N,00427.701,W,1,12,1.0,0.0,M,0.0,M,,*7A
$GPGSA,A,3,01,02,03,04,05,06,07,08,09,10,11,12,1.0,1.0,1.0*30
$GPRMC,084942.738,A,4821.515,N,00427.701,W,666.8,036.7,280524,000.0,W*6B
$GPGGA,084943.738,4821.681,N,00427.577,W,1,12,1.0,0.0,M,0.0,M,,*76
$GPGSA,A,3,01,02,03,04,05,06,07,08,09,10,11,12,1.0,1.0,1.0*30
$GPRMC,084943.738,A,4821.681,N,00427.577,W,666.8,036.7,280524,000.0,W*67
$GPGGA,084944.738,4821.847,N,00427.453,W,1,12,1.0,0.0,M,0.0,M,,*72
$GPGSA,A,3,01,02,03,04,05,06,07,08,09,10,11,12,1.0,1.0,1.0*30
$GPRMC,084944.738,A,4821.847,N,00427.453,W,666.8,036.7,280524,000.0,W*63
$GPGGA,084945.738,4822.012,N,00427.329,W,1,12,1.0,0.0,M,0.0,M,,*72
$GPGSA,A,3,01,02,03,04,05,06,07,08,09,10,11,12,1.0,1.0,1.0*30
$GPRMC,084945.738,A,4822.012,N,00427.329,W,666.7,036.7,280524,000.0,W*6C
$GPGGA,084946.738,4822.178,N,00427.205,W,1,12,1.0,0.0,M,0.0,M,,*73
$GPGSA,A,3,01,02,03,04,05,06,07,08,09,10,11,12,1.0,1.0,1.0*30
$GPRMC,084946.738,A,4822.178,N,00427.205,W,666.7,036.7,280524,000.0,W*6D
$GPGGA,084947.738,4822.344,N,00427.081,W,1,12,1.0,0.0,M,0.0,M,,*71
$GPGSA,A,3,01,02,03,04,05,06,07,08,09,10,11,12,1.0,1.0,1.0*30
$GPRMC,084947.738,A,4822.344,N,00427.081,W,666.7,036.7,280524,000.0,W*6F
$GPGGA,084948.738,4822.510,N,00426.957,W,1,12,1.0,0.0,M,0.0,M,,*7A
$GPGSA,A,3,01,02,03,04,05,06,07,08,09,10,11,12,1.0,1.0,1.0*30
$GPRMC,084948.738,A,4822.510,N,00426.957,W,666.7,036.7,280524,000.0,W*64
$GPGGA,084949.738,4822.675,N,00426.833,W,1,12,1.0,0.0,M,0.0,M,,*78
$GPGSA,A,3,01,02,03,04,05,06,07,08,09,10,11,12,1.0,1.0,1.0*30
$GPRMC,084949.738,A,4822.675,N,00426.833,W,666.7,036.7,280524,000.0,W*66
$GPGGA,084950.738,4822.841,N,00426.709,W,1,12,1.0,0.0,M,0.0,M,,*7F
$GPGSA,A,3,01,02,03,04,05,06,07,08,09,10,11,12,1.0,1.0,1.0*30
$GPRMC,084950.738,A,4822.841,N,00426.709,W,666.7,036.7,280524,000.0,W*61
$GPGGA,084951.738,4823.007,N,00426.585,W,1,12,1.0,0.0,M,0.0,M,,*73
$GPGSA,A,3,01,02,03,04,05,06,07,08,09,10,11,12,1.0,1.0,1.0*30
$GPRMC,084951.738,A,4823.007,N,00426.585,W,666.7,036.7,280524,000.0,W*6D
$GPGGA,084952.738,4823.173,N,00426.461,W,1,12,1.0,0.0,M,0.0,M,,*79
$GPGSA,A,3,01,02,03,04,05,06,07,08,09,10,11,12,1.0,1.0,1.0*30
$GPRMC,084952.738,A,4823.173,N,00426.461,W,666.7,036.7,280524,000.0,W*67
$GPGGA,084953.738,4823.338,N,00426.337,W,1,12,1.0,0.0,M,0.0,M,,*71
$GPGSA,A,3,01,02,03,04,05,06,07,08,09,10,11,12,1.0,1.0,1.0*30
$GPRMC,084953.738,A,4823.338,N,00426.337,W,666.7,036.7,280524,000.0,W*6F
$GPGGA,084954.738,4823.504,N,00426.213,W,1,12,1.0,0.0,M,0.0,M,,*78
$GPGSA,A,3,01,02,03,04,05,06,07,08,09,10,11,12,1.0,1.0,1.0*30
$GPRMC,084954.738,A,4823.504,N,00426.213,W,666.7,036.7,280524,000.0,W*66
$GPGGA,084955.738,4823.670,N,00426.089,W,1,12,1.0,0.0,M,0.0,M,,*78
$GPGSA,A,3,01,02,03,04,05,06,07,08,09,10,11,12,1.0,1.0,1.0*30
$GPRMC,084955.738,A,4823.670,N,00426.089,W,666.7,036.7,280524,000.0,W*66
$GPGGA,084956.738,4823.836,N,00425.965,W,1,12,1.0,0.0,M,0.0,M,,*7F
$GPGSA,A,3,01,02,03,04,05,06,07,08,09,10,11,12,1.0,1.0,1.0*30
$GPRMC,084956.738,A,4823.836,N,00425.965,W,666.7,036.7,280524,000.0,W*61
$GPGGA,084957.738,4824.001,N,00425.841,W,1,12,1.0,0.0,M,0.0,M,,*72
$GPGSA,A,3,01,02,03,04,05,06,07,08,09,10,11,12,1.0,1.0,1.0*30
$GPRMC,084957.738,A,4824.001,N,00425.841,W,666.7,036.7,280524,000.0,W*6C
$GPGGA,084958.738,4824.167,N,00425.717,W,1,12,1.0,0.0,M,0.0,M,,*70
$GPGSA,A,3,01,02,03,04,05,06,07,08,09,10,11,12,1.0,1.0,1.0*30
$GPRMC,084958.738,A,4824.167,N,00425.717,W,666.7,036.7,280524,000.0,W*6E
$GPGGA,084959.738,4824.333,N,00425.593,W,1,12,1.0,0.0,M,0.0,M,,*7C
$GPGSA,A,3,01,02,03,04,05,06,07,08,09,10,11,12,1.0,1.0,1.0*30
$GPRMC,084959.738,A,4824.333,N,00425.593,W,666.6,036.7,280524,000.0,W*63
$GPGGA,085000.738,4824.499,N,00425.469,W,1,12,1.0,0.0,M,0.0,M,,*7B
$GPGSA,A,3,01,02,03,04,05,06,07,08,09,10,11,12,1.0,1.0,1.0*30
$GPRMC,085000.738,A,4824.499,N,00425.469,W,666.6,036.7,280524,000.0,W*64
$GPGGA,085001.738,4824.664,N,00425.345,W,1,12,1.0,0.0,M,0.0,M,,*73
$GPGSA,A,3,01,02,03,04,05,06,07,08,09,10,11,12,1.0,1.0,1.0*30
$GPRMC,085001.738,A,4824.664,N,00425.345,W,666.6,036.7,280524,000.0,W*6C
$GPGGA,085002.738,4824.830,N,00425.221,W,1,12,1.0,0.0,M,0.0,M,,*7C
$GPGSA,A,3,01,02,03,04,05,06,07,08,09,10,11,12,1.0,1.0,1.0*30
$GPRMC,085002.738,A,4824.830,N,00425.221,W,666.6,036.7,280524,000.0,W*63
$GPGGA,085003.738,4824.996,N,00425.097,W,1,12,1.0,0.0,M,0.0,M,,*7F
$GPGSA,A,3,01,02,03,04,05,06,07,08,09,10,11,12,1.0,1.0,1.0*30
$GPRMC,085003.738,A,4824.996,N,00425.097,W,666.6,036.7,280524,000.0,W*60
$GPGGA,085004.738,4825.162,N,00424.973,W,1,12,1.0,0.0,M,0.0,M,,*78
$GPGSA,A,3,01,02,03,04,05,06,07,08,09,10,11,12,1.0,1.0,1.0*30
$GPRMC,085004.738,A,4825.162,N,00424.973,W,666.6,036.7,280524,000.0,W*67
$GPGGA,085005.738,4825.327,N,00424.849,W,1,12,1.0,0.0,M,0.0,M,,*72
$GPGSA,A,3,01,02,03,04,05,06,07,08,09,10,11,12,1.0,1.0,1.0*30
$GPRMC,085005.738,A,4825.327,N,00424.849,W,666.6,036.7,280524,000.0,W*6D
$GPGGA,085006.738,4825.493,N,00424.725,W,1,12,1.0,0.0,M,0.0,M,,*7C
$GPGSA,A,3,01,02,03,04,05,06,07,08,09,10,11,12,1.0,1.0,1.0*30
$GPRMC,085006.738,A,4825.493,N,00424.725,W,666.6,036.7,280524,000.0,W*63
$GPGGA,085007.738,4825.659,N,00424.602,W,1,12,1.0,0.0,M,0.0,M,,*7D
$GPGSA,A,3,01,02,03,04,05,06,07,08,09,10,11,12,1.0,1.0,1.0*30
$GPRMC,085007.738,A,4825.659,N,00424.602,W,666.6,036.7,280524,000.0,W*62
$GPGGA,085008.738,4825.825,N,00424.478,W,1,12,1.0,0.0,M,0.0,M,,*78
$GPGSA,A,3,01,02,03,04,05,06,07,08,09,10,11,12,1.0,1.0,1.0*30
$GPRMC,085008.738,A,4825.825,N,00424.478,W,666.6,036.7,280524,000.0,W*67
$GPGGA,085009.738,4825.990,N,00424.354,W,1,12,1.0,0.0,M,0.0,M,,*7F
$GPGSA,A,3,01,02,03,04,05,06,07,08,09,10,11,12,1.0,1.0,1.0*30
$GPRMC,085009.738,A,4825.990,N,00424.354,W,666.6,036.7,280524,000.0,W*60
$GPGGA,085010.738,4826.156,N,00424.230,W,1,12,1.0,0.0,M,0.0,M,,*75
$GPGSA,A,3,01,02,03,04,05,06,07,08,09,10,11,12,1.0,1.0,1.0*30
$GPRMC,085010.738,A,4826.156,N,00424.230,W,666.6,036.7,280524,000.0,W*6A
$GPGGA,085011.738,4826.322,N,00424.106,W,1,12,1.0,0.0,M,0.0,M,,*73
$GPGSA,A,3,01,02,03,04,05,06,07,08,09,10,11,12,1.0,1.0,1.0*30
$GPRMC,085011.738,A,4826.322,N,00424.106,W,666.6,036.7,280524,000.0,W*6C
$GPGGA,085012.738,4826.488,N,00423.982,W,1,12,1.0,0.0,M,0.0,M,,*74
$GPGSA,A,3,01,02,03,04,05,06,07,08,09,10,11,12,1.0,1.0,1.0*30
$GPRMC,085012.738,A,4826.488,N,00423.982,W,666.6,036.7,280524,000.0,W*6B
$GPGGA,085013.738,4826.653,N,00423.858,W,1,12,1.0,0.0,M,0.0,M,,*77
$GPGSA,A,3,01,02,03,04,05,06,07,08,09,10,11,12,1.0,1.0,1.0*30
$GPRMC,085013.738,A,4826.653,N,00423.858,W,666.5,264.3,280524,000.0,W*6A
$GPGGA,085014.738,4826.626,N,00424.133,W,1,12,1.0,0.0,M,0.0,M,,*71
$GPGSA,A,3,01,02,03,04,05,06,07,08,09,10,11,12,1.0,1.0,1.0*30
$GPRMC,085014.738,A,4826.626,N,00424.133,W,666.5,264.3,280524,000.0,W*6C
$GPGGA,085015.738,4826.598,N,00424.409,W,1,12,1.0,0.0,M,0.0,M,,*7A
$GPGSA,A,3,01,02,03,04,05,06,07,08,09,10,11,12,1.0,1.0,1.0*30
$GPRMC,085015.738,A,4826.598,N,00424.409,W,666.5,264.3,280524,000.0,W*67
$GPGGA,085016.738,4826.571,N,00424.685,W,1,12,1.0,0.0,M,0.0,M,,*78
$GPGSA,A,3,01,02,03,04,05,06,07,08,09,10,11,12,1.0,1.0,1.0*30
$GPRMC,085016.738,A,4826.571,N,00424.685,W,666.5,264.3,280524,000.0,W*65
$GPGGA,085017.738,4826.543,N,00424.961,W,1,12,1.0,0.0,M,0.0,M,,*7D
$GPGSA,A,3,01,02,03,04,05,06,07,08,09,10,11,12,1.0,1.0,1.0*30
$GPRMC,085017.738,A,4826.543,N,00424.961,W,666.5,264.3,280524,000.0,W*60
$GPGGA,085018.738,4826.516,N,00425.237,W,1,12,1.0,0.0,M,0.0,M,,*7B
$GPGSA,A,3,01,02,03,04,05,06,07,08,09,10,11,12,1.0,1.0,1.0*30
$GPRMC,085018.738,A,4826.516,N,00425.237,W,666.5,264.3,280524,000.0,W*66
$GPGGA,085019.738,4826.488,N,00425.512,W,1,12,1.0,0.0,M,0.0,M,,*7C
$GPGSA,A,3,01,02,03,04,05,06,07,08,09,10,11,12,1.0,1.0,1.0*30
$GPRMC,085019.738,A,4826.488,N,00425.512,W,666.5,264.3,280524,000.0,W*61
$GPGGA,085020.738,4826.461,N,00425.788,W,1,12,1.0,0.0,M,0.0,M,,*70
$GPGSA,A,3,01,02,03,04,05,06,07,08,09,10,11,12,1.0,1.0,1.0*30
$GPRMC,085020.738,A,4826.461,N,00425.788,W,666.5,264.3,280524,000.0,W*6D
$GPGGA,085021.738,4826.433,N,00426.064,W,1,12,1.0,0.0,M,0.0,M,,*70
$GPGSA,A,3,01,02,03,04,05,06,07,08,09,10,11,12,1.0,1.0,1.0*30
$GPRMC,085021.738,A,4826.433,N,00426.064,W,666.5,264.3,280524,000.0,W*6D
$GPGGA,085022.738,4826.405,N,00426.340,W,1,12,1.0,0.0,M,0.0,M,,*73
$GPGSA,A,3,01,02,03,04,05,06,07,08,09,10,11,12,1.0,1.0,1.0*30
$GPRMC,085022.738,A,4826.405,N,00426.340,W,666.6,264.3,280524,000.0,W*6D
$GPGGA,085023.738,4826.378,N,00426.616,W,1,12,1.0,0.0,M,0.0,M,,*79
$GPGSA,A,3,01,02,03,04,05,06,07,08,09,10,11,12,1.0,1.0,1.0*30
$GPRMC,085023.738,A,4826.378,N,00426.616,W,666.6,264.3,280524,000.0,W*67
$GPGGA,085024.738,4826.350,N,00426.891,W,1,12,1.0,0.0,M,0.0,M,,*75
$GPGSA,A,3,01,02,03,04,05,06,07,08,09,10,11,12,1.0,1.0,1.0*30
$GPRMC,085024.738,A,4826.350,N,00426.891,W,666.6,264.3,280524,000.0,W*6B
$GPGGA,085025.738,4826.323,N,00427.167,W,1,12,1.0,0.0,M,0.0,M,,*71
$GPGSA,A,3,01,02,03,04,05,06,07,08,09,10,11,12,1.0,1.0,1.0*30
$GPRMC,085025.738,A,4826.323,N,00427.167,W,666.6,264.3,280524,000.0,W*6F
$GPGGA,085026.738,4826.295,N,00427.443,W,1,12,1.0,0.0,M,0.0,M,,*7D
$GPGSA,A,3,01,02,03,04,05,06,07,08,09,10,11,12,1.0,1.0,1.0*30
$GPRMC,085026.738,A,4826.295,N,00427.443,W,666.6,264.3,280524,000.0,W*63
$GPGGA,085027.738,4826.268,N,00427.719,W,1,12,1.0,0.0,M,0.0,M,,*72
$GPGSA,A,3,01,02,03,04,05,06,07,08,09,10,11,12,1.0,1.0,1.0*30
$GPRMC,085027.738,A,4826.268,N,00427.719,W,666.6,264.3,280524,000.0,W*6C
$GPGGA,085028.738,4826.240,N,00427.995,W,1,12,1.0,0.0,M,0.0,M,,*7D
$GPGSA,A,3,01,02,03,04,05,06,07,08,09,10,11,12,1.0,1.0,1.0*30
$GPRMC,085028.738,A,4826.240,N,00427.995,W,666.6,264.3,280524,000.0,W*63
$GPGGA,085029.738,4826.213,N,00428.270,W,1,12,1.0,0.0,M,0.0,M,,*75
$GPGSA,A,3,01,02,03,04,05,06,07,08,09,10,11,12,1.0,1.0,1.0*30
$GPRMC,085029.738,A,4826.213,N,00428.270,W,666.6,264.3,280524,000.0,W*6B
$GPGGA,085030.738,4826.185,N,00428.546,W,1,12,1.0,0.0,M,0.0,M,,*73
$GPGSA,A,3,01,02,03,04,05,06,07,08,09,10,11,12,1.0,1.0,1.0*30
$GPRMC,085030.738,A,4826.185,N,00428.546,W,666.6,264.3,280524,000.0,W*6D
$GPGGA,085031.738,4826.158,N,00428.822,W,1,12,1.0,0.0,M,0.0,M,,*7D
$GPGSA,A,3,01,02,03,04,05,06,07,08,09,10,11,12,1.0,1.0,1.0*30
$GPRMC,085031.738,A,4826.158,N,00428.822,W,666.6,264.3,280524,000.0,W*63
$GPGGA,085032.738,4826.130,N,00429.098,W,1,12,1.0,0.0,M,0.0,M,,*78
$GPGSA,A,3,01,02,03,04,05,06,07,08,09,10,11,12,1.0,1.0,1.0*30
$GPRMC,085032.738,A,4826.130,N,00429.098,W,666.6,264.3,280524,000.0,W*66
$GPGGA,085033.738,4826.103,N,00429.374,W,1,12,1.0,0.0,M,0.0,M,,*78
$GPGSA,A,3,01,02,03,04,05,06,07,08,09,10,11,12,1.0,1.0,1.0*30
$GPRMC,085033.738,A,4826.103,N,00429.374,W,666.6,264.3,280524,000.0,W*66
$GPGGA,085034.738,4826.075,N,00429.649,W,1,12,1.0,0.0,M,0.0,M,,*74
$GPGSA,A,3,01,02,03,04,05,06,07,08,09,10,11,12,1.0,1.0,1.0*30
$GPRMC,085034.738,A,4826.075,N,00429.649,W,666.6,264.3,280524,000.0,W*6A
$GPGGA,085035.738,4826.048,N,00429.925,W,1,12,1.0,0.0,M,0.0,M,,*7E
$GPGSA,A,3,01,02,03,04,05,06,07,08,09,10,11,12,1.0,1.0,1.0*30
$GPRMC,085035.738,A,4826.048,N,00429.925,W,666.6,264.3,280524,000.0,W*60
$GPGGA,085036.738,4826.020,N,00430.201,W,1,12,1.0,0.0,M,0.0,M,,*76
$GPGSA,A,3,01,02,03,04,05,06,07,08,09,10,11,12,1.0,1.0,1.0*30
$GPRMC,085036.738,A,4826.020,N,00430.201,W,666.6,264.3,280524,000.0,W*68
$GPGGA,085037.738,4825.992,N,00430.477,W,1,12,1.0,0.0,M,0.0,M,,*73
$GPGSA,A,3,01,02,03,04,05,06,07,08,09,10,11,12,1.0,1.0,1.0*30
$GPRMC,085037.738,A,4825.992,N,00430.477,W,666.6,264.3,280524,000.0,W*6D
$GPGGA,085038.738,4825.965,N,00430.753,W,1,12,1.0,0.0,M,0.0,M,,*71
$GPGSA,A,3,01,02,03,04,05,06,07,08,09,10,11,12,1.0,1.0,1.0*30
$GPRMC,085038.738,A,4825.965,N,00430.753,W,666.6,264.3,280524,000.0,W*6F
$GPGGA,085039.738,4825.937,N,00431.028,W,1,12,1.0,0.0,M,0.0,M,,*7D
$GPGSA,A,3,01,02,03,04,05,06,07,08,09,10,11,12,1.0,1.0,1.0*30
$GPRMC,085039.738,A,4825.937,N,00431.028,W,666.7,264.3,280524,000.0,W*62
$GPGGA,085040.738,4825.910,N,00431.304,W,1,12,1.0,0.0,M,0.0,M,,*7B
$GPGSA,A,3,01,02,03,04,05,06,07,08,09,10,11,12,1.0,1.0,1.0*30
$GPRMC,085040.738,A,4825.910,N,00431.304,W,666.7,264.3,280524,000.0,W*64
$GPGGA,085041.738,4825.882,N,00431.580,W,1,12,1.0,0.0,M,0.0,M,,*7A
$GPGSA,A,3,01,02,03,04,05,06,07,08,09,10,11,12,1.0,1.0,1.0*30
$GPRMC,085041.738,A,4825.882,N,00431.580,W,666.7,264.3,280524,000.0,W*65
$GPGGA,085042.738,4825.855,N,00431.856,W,1,12,1.0,0.0,M,0.0,M,,*75
$GPGSA,A,3,01,02,03,04,05,06,07,08,09,10,11,12,1.0,1.0,1.0*30
$GPRMC,085042.738,A,4825.855,N,00431.856,W,666.7,264.3,280524,000.0,W*6A
$GPGGA,085043.738,4825.827,N,00432.132,W,1,12,1.0,0.0,M,0.0,M,,*79
$GPGSA,A,3,01,02,03,04,05,06,07,08,09,10,11,12,1.0,1.0,1.0*30
$GPRMC,085043.738,A,4825.827,N,00432.132,W,666.7,264.3,280524,000.0,W*66
$GPGGA,085044.738,4825.800,N,00432.408,W,1,12,1.0,0.0,M,0.0,M,,*77
$GPGSA,A,3,01,02,03,04,05,06,07,08,09,10,11,12,1.0,1.0,1.0*30
$GPRMC,085044.738,A,4825.800,N,00432.408,W,666.7,264.3,280524,000.0,W*68
$GPGGA,085045.738,4825.772,N,00432.683,W,1,12,1.0,0.0,M,0.0,M,,*7D
$GPGSA,A,3,01,02,03,04,05,06,07,08,09,10,11,12,1.0,1.0,1.0*30
$GPRMC,085045.738,A,4825.772,N,00432.683,W,666.7,264.3,280524,000.0,W*62
$GPGGA,085046.738,4825.745,N,00432.959,W,1,12,1.0,0.0,M,0.0,M,,*72
$GPGSA,A,3,01,02,03,04,05,06,07,08,09,10,11,12,1.0,1.0,1.0*30
$GPRMC,085046.738,A,4825.745,N,00432.959,W,666.7,264.3,280524,000.0,W*6D
$GPGGA,085047.738,4825.717,N,00433.235,W,1,12,1.0,0.0,M,0.0,M,,*74
$GPGSA,A,3,01,02,03,04,05,06,07,08,09,10,11,12,1.0,1.0,1.0*30
$GPRMC,085047.738,A,4825.717,N,00433.235,W,666.7,264.3,280524,000.0,W*6B
$GPGGA,085048.738,4825.690,N,00433.511,W,1,12,1.0,0.0,M,0.0,M,,*74
$GPGSA,A,3,01,02,03,04,05,06,07,08,09,10,11,12,1.0,1.0,1.0*30
$GPRMC,085048.738,A,4825.690,N,00433.511,W,666.7,264.3,280524,000.0,W*6B
$GPGGA,085049.738,4825.662,N,00433.787,W,1,12,1.0,0.0,M,0.0,M,,*75
$GPGSA,A,3,01,02,03,04,05,06,07,08,09,10,11,12,1.0,1.0,1.0*30
$GPRMC,085049.738,A,4825.662,N,00433.787,W,666.7,264.3,280524,000.0,W*6A
$GPGGA,085050.738,4825.634,N,00434.062,W,1,12,1.0,0.0,M,0.0,M,,*75
$GPGSA,A,3,01,02,03,04,05,06,07,08,09,10,11,12,1.0,1.0,1.0*30
$GPRMC,085050.738,A,4825.634,N,00434.062,W,666.7,264.3,280524,000.0,W*6A
$GPGGA,085051.738,4825.607,N,00434.338,W,1,12,1.0,0.0,M,0.0,M,,*78
$GPGSA,A,3,01,02,03,04,05,06,07,08,09,10,11,12,1.0,1.0,1.0*30
$GPRMC,085051.738,A,4825.607,N,00434.338,W,666.7,264.3,280524,000.0,W*67
$GPGGA,085052.738,4825.579,N,00434.614,W,1,12,1.0,0.0,M,0.0,M,,*7A
$GPGSA,A,3,01,02,03,04,05,06,07,08,09,10,11,12,1.0,1.0,1.0*30
$GPRMC,085052.738,A,4825.579,N,00434.614,W,666.7,264.3,280524,000.0,W*65
$GPGGA,085053.738,4825.552,N,00434.890,W,1,12,1.0,0.0,M,0.0,M,,*70
$GPGSA,A,3,01,02,03,04,05,06,07,08,09,10,11,12,1.0,1.0,1.0*30
$GPRMC,085053.738,A,4825.552,N,00434.890,W,666.7,264.3,280524,000.0,W*6F
$GPGGA,085054.738,4825.524,N,00435.166,W,1,12,1.0,0.0,M,0.0,M,,*77
$GPGSA,A,3,01,02,03,04,05,06,07,08,09,10,11,12,1.0,1.0,1.0*30
$GPRMC,085054.738,A,4825.524,N,00435.166,W,666.7,264.3,280524,000.0,W*68
$GPGGA,085055.738,4825.497,N,00435.441,W,1,12,1.0,0.0,M,0.0,M,,*7F
$GPGSA,A,3,01,02,03,04,05,06,07,08,09,10,11,12,1.0,1.0,1.0*30
$GPRMC,085055.738,A,4825.497,N,00435.441,W,666.7,264.3,280524,000.0,W*60
$GPGGA,085056.738,4825.469,N,00435.717,W,1,12,1.0,0.0,M,0.0,M,,*7D
$GPGSA,A,3,01,02,03,04,05,06,07,08,09,10,11,12,1.0,1.0,1.0*30
$GPRMC,085056.738,A,4825.469,N,00435.717,W,666.8,264.3,280524,000.0,W*6D
$GPGGA,085057.738,4825.442,N,00435.993,W,1,12,1.0,0.0,M,0.0,M,,*77
$GPGSA,A,3,01,02,03,04,05,06,07,08,09,10,11,12,1.0,1.0,1.0*30
$GPRMC,085057.738,A,4825.442,N,00435.993,W,666.8,264.3,280524,000.0,W*67
$GPGGA,085058.738,4825.414,N,00436.269,W,1,12,1.0,0.0,M,0.0,M,,*76
$GPGSA,A,3,01,02,03,04,05,06,07,08,09,10,11,12,1.0,1.0,1.0*30
$GPRMC,085058.738,A,4825.414,N,00436.269,W,666.8,264.3,280524,000.0,W*66
$GPGGA,085059.738,4825.387,N,00436.545,W,1,12,1.0,0.0,M,0.0,M,,*73
$GPGSA,A,3,01,02,03,04,05,06,07,08,09,10,11,12,1.0,1.0,1.0*30
$GPRMC,085059.738,A,4825.387,N,00436.545,W,666.8,264.3,280524,000.0,W*63
$GPGGA,085100.738,4825.359,N,00436.820,W,1,12,1.0,0.0,M,0.0,M,,*73
$GPGSA,A,3,01,02,03,04,05,06,07,08,09,10,11,12,1.0,1.0,1.0*30
$GPRMC,085100.738,A,4825.359,N,00436.820,W,666.8,264.3,280524,000.0,W*63
$GPGGA,085101.738,4825.332,N,00437.096,W,1,12,1.0,0.0,M,0.0,M,,*7B
$GPGSA,A,3,01,02,03,04,05,06,07,08,09,10,11,12,1.0,1.0,1.0*30
$GPRMC,085101.738,A,4825.332,N,00437.096,W,666.8,264.3,280524,000.0,W*6B
$GPGGA,085102.738,4825.304,N,00437.372,W,1,12,1.0,0.0,M,0.0,M,,*74
$GPGSA,A,3,01,02,03,04,05,06,07,08,09,10,11,12,1.0,1.0,1.0*30
$GPRMC,085102.738,A,4825.304,N,00437.372,W,666.8,264.3,280524,000.0,W*64
$GPGGA,085103.738,4825.277,N,00437.648,W,1,12,1.0,0.0,M,0.0,M,,*7C
$GPGSA,A,3,01,02,03,04,05,06,07,08,09,10,11,12,1.0,1.0,1.0*30
$GPRMC,085103.738,A,4825.277,N,00437.648,W,666.8,264.3,280524,000.0,W*6C
$GPGGA,085104.738,4825.249,N,00437.924,W,1,12,1.0,0.0,M,0.0,M,,*73
$GPGSA,A,3,01,02,03,04,05,06,07,08,09,10,11,12,1.0,1.0,1.0*30
$GPRMC,085104.738,A,4825.249,N,00437.924,W,666.8,264.3,280524,000.0,W*63
$GPGGA,085105.738,4825.221,N,00438.199,W,1,12,1.0,0.0,M,0.0,M,,*7D
$GPGSA,A,3,01,02,03,04,05,06,07,08,09,10,11,12,1.0,1.0,1.0*30
$GPRMC,085105.738,A,4825.221,N,00438.199,W,666.8,264.3,280524,000.0,W*6D
$GPGGA,085106.738,4825.194,N,00438.475,W,1,12,1.0,0.0,M,0.0,M,,*74
$GPGSA,A,3,01,02,03,04,05,06,07,08,09,10,11,12,1.0,1.0,1.0*30
$GPRMC,085106.738,A,4825.194,N,00438.475,W,666.8,264.3,280524,000.0,W*64
$GPGGA,085107.738,4825.166,N,00438.751,W,1,12,1.0,0.0,M,0.0,M,,*7D
$GPGSA,A,3,01,02,03,04,05,06,07,08,09,10,11,12,1.0,1.0,1.0*30
$GPRMC,085107.738,A,4825.166,N,00438.751,W,666.8,264.3,280524,000.0,W*6D
$GPGGA,085108.738,4825.139,N,00439.027,W,1,12,1.0,0.0,M,0.0,M,,*7F
$GPGSA,A,3,01,02,03,04,05,06,07,08,09,10,11,12,1.0,1.0,1.0*30
$GPRMC,085108.738,A,4825.139,N,00439.027,W,666.8,264.3,280524,000.0,W*6F
$GPGGA,085109.738,4825.111,N,00439.303,W,1,12,1.0,0.0,M,0.0,M,,*71
$GPGSA,A,3,01,02,03,04,05,06,07,08,09,10,11,12,1.0,1.0,1.0*30
$GPRMC,085109.738,A,4825.111,N,00439.303,W,666.8,264.3,280524,000.0,W*61
$GPGGA,085110.738,4825.084,N,00439.578,W,1,12,1.0,0.0,M,0.0,M,,*7E
$GPGSA,A,3,01,02,03,04,05,06,07,08,09,10,11,12,1.0,1.0,1.0*30
$GPRMC,085110.738,A,4825.084,N,00439.578,W,666.8,264.3,280524,000.0,W*6E
$GPGGA,085111.738,4825.056,N,00439.854,W,1,12,1.0,0.0,M,0.0,M,,*73
$GPGSA,A,3,01,02,03,04,05,06,07,08,09,10,11,12,1.0,1.0,1.0*30
$GPRMC,085111.738,A,4825.056,N,00439.854,W,666.8,264.3,280524,000.0,W*63
$GPGGA,085112.738,4825.029,N,00440.130,W,1,12,1.0,0.0,M,0.0,M,,*7D
$GPGSA,A,3,01,02,03,04,05,06,07,08,09,10,11,12,1.0,1.0,1.0*30
$GPRMC,085112.738,A,4825.029,N,00440.130,W,666.8,264.3,280524,000.0,W*6D
$GPGGA,085113.738,4825.001,N,00440.406,W,1,12,1.0,0.0,M,0.0,M,,*76
$GPGSA,A,3,01,02,03,04,05,06,07,08,09,10,11,12,1.0,1.0,1.0*30
$GPRMC,085113.738,A,4825.001,N,00440.406,W,666.9,264.3,280524,000.0,W*67
$GPGGA,085114.738,4824.974,N,00440.682,W,1,12,1.0,0.0,M,0.0,M,,*75
$GPGSA,A,3,01,02,03,04,05,06,07,08,09,10,11,12,1.0,1.0,1.0*30
$GPRMC,085114.738,A,4824.974,N,00440.682,W,666.9,264.3,280524,000.0,W*64
$GPGGA,085115.738,4824.946,N,00440.957,W,1,12,1.0,0.0,M,0.0,M,,*72
$GPGSA,A,3,01,02,03,04,05,06,07,08,09,10,11,12,1.0,1.0,1.0*30
$GPRMC,085115.738,A,4824.946,N,00440.957,W,666.9,264.3,280524,000.0,W*63
$GPGGA,085116.738,4824.919,N,00441.233,W,1,12,1.0,0.0,M,0.0,M,,*73
$GPGSA,A,3,01,02,03,04,05,06,07,08,09,10,11,12,1.0,1.0,1.0*30
$GPRMC,085116.738,A,4824.919,N,00441.233,W,666.9,264.3,280524,000.0,W*62
$GPGGA,085117.738,4824.891,N,00441.509,W,1,12,1.0,0.0,M,0.0,M,,*7D
$GPGSA,A,3,01,02,03,04,05,06,07,08,09,10,11,12,1.0,1.0,1.0*30
$GPRMC,085117.738,A,4824.891,N,00441.509,W,666.9,264.3,280524,000.0,W*6C
$GPGGA,085118.738,4824.863,N,00441.785,W,1,12,1.0,0.0,M,0.0,M,,*79
$GPGSA,A,3,01,02,03,04,05,06,07,08,09,10,11,12,1.0,1.0,1.0*30
$GPRMC,085118.738,A,4824.863,N,00441.785,W,666.9,264.3,280524,000.0,W*68
$GPGGA,085119.738,4824.836,N,00442.061,W,1,12,1.0,0.0,M,0.0,M,,*76
$GPGSA,A,3,01,02,03,04,05,06,07,08,09,10,11,12,1.0,1.0,1.0*30
$GPRMC,085119.738,A,4824.836,N,00442.061,W,666.9,264.3,280524,000.0,W*67
$GPGGA,085120.738,4824.808,N,00442.336,W,1,12,1.0,0.0,M,0.0,M,,*70
$GPGSA,A,3,01,02,03,04,05,06,07,08,09,10,11,12,1.0,1.0,1.0*30
$GPRMC,085120.738,A,4824.808,N,00442.336,W,666.9,264.3,280524,000.0,W*61
$GPGGA,085121.738,4824.781,N,00442.612,W,1,12,1.0,0.0,M,0.0,M,,*7C
$GPGSA,A,3,01,02,03,04,05,06,07,08,09,10,11,12,1.0,1.0,1.0*30
$GPRMC,085121.738,A,4824.781,N,00442.612,W,666.9,264.3,280524,000.0,W*6D
$GPGGA,085122.738,4824.753,N,00442.888,W,1,12,1.0,0.0,M,0.0,M,,*7D
$GPGSA,A,3,01,02,03,04,05,06,07,08,09,10,11,12,1.0,1.0,1.0*30
$GPRMC,085122.738,A,4824.753,N,00442.888,W,666.9,264.3,280524,000.0,W*6C
$GPGGA,085123.738,4824.726,N,00443.164,W,1,12,1.0,0.0,M,0.0,M,,*74
$GPGSA,A,3,01,02,03,04,05,06,07,08,09,10,11,12,1.0,1.0,1.0*30
$GPRMC,085123.738,A,4824.726,N,00443.164,W,666.9,264.3,280524,000.0,W*65
$GPGGA,085124.738,4824.698,N,00443.440,W,1,12,1.0,0.0,M,0.0,M,,*74
$GPGSA,A,3,01,02,03,04,05,06,07,08,09,10,11,12,1.0,1.0,1.0*30
$GPRMC,085124.738,A,4824.698,N,00443.440,W,666.9,264.3,280524,000.0,W*65
$GPGGA,085125.738,4824.671,N,00443.715,W,1,12,1.0,0.0,M,0.0,M,,*71
$GPGSA,A,3,01,02,03,04,05,06,07,08,09,10,11,12,1.0,1.0,1.0*30
$GPRMC,085125.738,A,4824.671,N,00443.715,W,666.9,264.3,280524,000.0,W*60
$GPGGA,085126.738,4824.643,N,00443.991,W,1,12,1.0,0.0,M,0.0,M,,*71
$GPGSA,A,3,01,02,03,04,05,06,07,08,09,10,11,12,1.0,1.0,1.0*30
$GPRMC,085126.738,A,4824.643,N,00443.991,W,666.9,264.3,280524,000.0,W*60
$GPGGA,085127.738,4824.616,N,00444.267,W,1,12,1.0,0.0,M,0.0,M,,*75
$GPGSA,A,3,01,02,03,04,05,06,07,08,09,10,11,12,1.0,1.0,1.0*30
$GPRMC,085127.738,A,4824.616,N,00444.267,W,666.9,264.3,280524,000.0,W*64
$GPGGA,085128.738,4824.588,N,00444.543,W,1,12,1.0,0.0,M,0.0,M,,*7F
$GPGSA,A,3,01,02,03,04,05,06,07,08,09,10,11,12,1.0,1.0,1.0*30
$GPRMC,085128.738,A,4824.588,N,00444.543,W,666.9,264.3,280524,000.0,W*6E
$GPGGA,085129.738,4824.561,N,00444.819,W,1,12,1.0,0.0,M,0.0,M,,*7B
$GPGSA,A,3,01,02,03,04,05,06,07,08,09,10,11,12,1.0,1.0,1.0*30
$GPRMC,085129.738,A,4824.561,N,00444.819,W,666.9,264.3,280524,000.0,W*6A
$GPGGA,085130.738,4824.533,N,00445.094,W,1,12,1.0,0.0,M,0.0,M,,*78
$GPGSA,A,3,01,02,03,04,05,06,07,08,09,10,11,12,1.0,1.0,1.0*30
$GPRMC,085130.738,A,4824.533,N,00445.094,W,667.0,264.3,280524,000.0,W*61
$GPGGA,085131.738,4824.505,N,00445.370,W,1,12,1.0,0.0,M,0.0,M,,*75
$GPGSA,A,3,01,02,03,04,05,06,07,08,09,10,11,12,1.0,1.0,1.0*30
$GPRMC,085131.738,A,4824.505,N,00445.370,W,667.0,264.3,280524,000.0,W*6C
$GPGGA,085132.738,4824.478,N,00445.646,W,1,12,1.0,0.0,M,0.0,M,,*7D
$GPGSA,A,3,01,02,03,04,05,06,07,08,09,10,11,12,1.0,1.0,1.0*30
$GPRMC,085132.738,A,4824.478,N,00445.646,W,667.0,264.3,280524,000.0,W*64
$GPGGA,085133.738,4824.450,N,00445.922,W,1,12,1.0,0.0,M,0.0,M,,*7B
$GPGSA,A,3,01,02,03,04,05,06,07,08,09,10,11,12,1.0,1.0,1.0*30
$GPRMC,085133.738,A,4824.450,N,00445.922,W,667.0,264.3,280524,000.0,W*62
$GPGGA,085134.738,4824.423,N,00446.198,W,1,12,1.0,0.0,M,0.0,M,,*72
$GPGSA,A,3,01,02,03,04,05,06,07,08,09,10,11,12,1.0,1.0,1.0*30
$GPRMC,085134.738,A,4824.423,N,00446.198,W,667.0,264.3,280524,000.0,W*6B
$GPGGA,085135.738,4824.395,N,00446.473,W,1,12,1.0,0.0,M,0.0,M,,*79
$GPGSA,A,3,01,02,03,04,05,06,07,08,09,10,11,12,1.0,1.0,1.0*30
$GPRMC,085135.738,A,4824.395,N,00446.473,W,666.6,160.2,280524,000.0,W*61
$GPGGA,085136.738,4824.215,N,00446.408,W,1,12,1.0,0.0,M,0.0,M,,*7F
$GPGSA,A,3,01,02,03,04,05,06,07,08,09,10,11,12,1.0,1.0,1.0*30
$GPRMC,085136.738,A,4824.215,N,00446.408,W,666.6,160.2,280524,000.0,W*67
$GPGGA,085137.738,4824.035,N,00446.343,W,1,12,1.0,0.0,M,0.0,M,,*76
$GPGSA,A,3,01,02,03,04,05,06,07,08,09,10,11,12,1.0,1.0,1.0*30
$GPRMC,085137.738,A,4824.035,N,00446.343,W,666.6,160.2,280524,000.0,W*6E
$GPGGA,085138.738,4823.856,N,00446.278,W,1,12,1.0,0.0,M,0.0,M,,*7A
$GPGSA,A,3,01,02,03,04,05,06,07,08,09,10,11,12,1.0,1.0,1.0*30
$GPRMC,085138.738,A,4823.856,N,00446.278,W,666.6,160.2,280524,000.0,W*62
$GPGGA,085139.738,4823.676,N,00446.213,W,1,12,1.0,0.0,M,0.0,M,,*7A
$GPGSA,A,3,01,02,03,04,05,06,07,08,09,10,11,12,1.0,1.0,1.0*30
$GPRMC,085139.738,A,4823.676,N,00446.213,W,666.6,160.2,280524,000.0,W*62
$GPGGA,085140.738,4823.496,N,00446.148,W,1,12,1.0,0.0,M,0.0,M,,*75
$GPGSA,A,3,01,02,03,04,05,06,07,08,09,10,11,12,1.0,1.0,1.0*30
$GPRMC,085140.738,A,4823.496,N,00446.148,W,666.6,160.2,280524,000.0,W*6D
$GPGGA,085141.738,4823.316,N,00446.083,W,1,12,1.0,0.0,M,0.0,M,,*7D
$GPGSA,A,3,01,02,03,04,05,06,07,08,09,10,11,12,1.0,1.0,1.0*30
$GPRMC,085141.738,A,4823.316,N,00446.083,W,666.6,160.2,280524,000.0,W*65
$GPGGA,085142.738,4823.136,N,00446.018,W,1,12,1.0,0.0,M,0.0,M,,*7C
$GPGSA,A,3,01,02,03,04,05,06,07,08,09,10,11,12,1.0,1.0,1.0*30
$GPRMC,085142.738,A,4823.136,N,00446.018,W,666.6,160.2,280524,000.0,W*64
$GPGGA,085143.738,4822.956,N,00445.953,W,1,12,1.0,0.0,M,0.0,M,,*77
$GPGSA,A,3,01,02,03,04,05,06,07,08,09,10,11,12,1.0,1.0,1.0*30
$GPRMC,085143.738,A,4822.956,N,00445.953,W,666.6,160.2,280524,000.0,W*6F
$GPGGA,085144.738,4822.776,N,00445.888,W,1,12,1.0,0.0,M,0.0,M,,*7B
$GPGSA,A,3,01,02,03,04,05,06,07,08,09,10,11,12,1.0,1.0,1.0*30
$GPRMC,085144.738,A,4822.776,N,00445.888,W,666.6,160.2,280524,000.0,W*63
$GPGGA,085145.738,4822.596,N,00445.823,W,1,12,1.0,0.0,M,0.0,M,,*77
$GPGSA,A,3,01,02,03,04,05,06,07,08,09,10,11,12,1.0,1.0,1.0*30
$GPRMC,085145.738,A,4822.596,N,00445.823,W,666.6,160.2,280524,000.0,W*6F
$GPGGA,085146.738,4822.416,N,00445.758,W,1,12,1.0,0.0,M,0.0,M,,*7E
$GPGSA,A,3,01,02,03,04,05,06,07,08,09,10,11,12,1.0,1.0,1.0*30
$GPRMC,085146.738,A,4822.416,N,00445.758,W,666.6,160.2,280524,000.0,W*66
$GPGGA,085147.738,4822.236,N,00445.693,W,1,12,1.0,0.0,M,0.0,M,,*7D
$GPGSA,A,3,01,02,03,04,05,06,07,08,09,10,11,12,1.0,1.0,1.0*30
$GPRMC,085147.738,A,4822.236,N,00445.693,W,666.6,160.2,280524,000.0,W*65
$GPGGA,085148.738,4822.056,N,00445.628,W,1,12,1.0,0.0,M,0.0,M,,*76
$GPGSA,A,3,01,02,03,04,05,06,07,08,09,10,11,12,1.0,1.0,1.0*30
$GPRMC,085148.738,A,4822.056,N,00445.628,W,666.6,160.2,280524,000.0,W*6E
$GPGGA,085149.738,4821.876,N,00445.563,W,1,12,1.0,0.0,M,0.0,M,,*72
$GPGSA,A,3,01,02,03,04,05,06,07,08,09,10,11,12,1.0,1.0,1.0*30
$GPRMC,085149.738,A,4821.876,N,00445.563,W,666.6,160.2,280524,000.0,W*6A
$GPGGA,085150.738,4821.696,N,00445.498,W,1,12,1.0,0.0,M,0.0,M,,*7F
$GPGSA,A,3,01,02,03,04,05,06,07,08,09,10,11,12,1.0,1.0,1.0*30
$GPRMC,085150.738,A,4821.696,N,00445.498,W,666.6,160.2,280524,000.0,W*67
$GPGGA,085151.738,4821.516,N,00445.433,W,1,12,1.0,0.0,M,0.0,M,,*74
$GPGSA,A,3,01,02,03,04,05,06,07,08,09,10,11,12,1.0,1.0,1.0*30
$GPRMC,085151.738,A,4821.516,N,00445.433,W,666.6,160.2,280524,000.0,W*6C
$GPGGA,085152.738,4821.337,N,00445.368,W,1,12,1.0,0.0,M,0.0,M,,*7B
$GPGSA,A,3,01,02,03,04,05,06,07,08,09,10,11,12,1.0,1.0,1.0*30
$GPRMC,085152.738,A,4821.337,N,00445.368,W,666.6,160.2,280524,000.0,W*63
$GPGGA,085153.738,4821.157,N,00445.303,W,1,12,1.0,0.0,M,0.0,M,,*73
$GPGSA,A,3,01,02,03,04,05,06,07,08,09,10,11,12,1.0,1.0,1.0*30
$GPRMC,085153.738,A,4821.157,N,00445.303,W,666.6,160.2,280524,000.0,W*6B
$GPGGA,085154.738,4820.977,N,00445.238,W,1,12,1.0,0.0,M,0.0,M,,*76
$GPGSA,A,3,01,02,03,04,05,06,07,08,09,10,11,12,1.0,1.0,1.0*30
$GPRMC,085154.738,A,4820.977,N,00445.238,W,666.6,160.2,280524,000.0,W*6E
$GPGGA,085155.738,4820.797,N,00445.173,W,1,12,1.0,0.0,M,0.0,M,,*7B
$GPGSA,A,3,01,02,03,04,05,06,07,08,09,10,11,12,1.0,1.0,1.0*30
$GPRMC,085155.738,A,4820.797,N,00445.173,W,666.6,160.2,280524,000.0,W*63
$GPGGA,085156.738,4820.617,N,00445.108,W,1,12,1.0,0.0,M,0.0,M,,*7D
$GPGSA,A,3,01,02,03,04,05,06,07,08,09,10,11,12,1.0,1.0,1.0*30
$GPRMC,085156.738,A,4820.617,N,00445.108,W,666.6,160.2,280524,000.0,W*65
$GPGGA,085157.738,4820.437,N,00445.043,W,1,12,1.0,0.0,M,0.0,M,,*72
$GPGSA,A,3,01,02,03,04,05,06,07,08,09,10,11,12,1.0,1.0,1.0*30
$GPRMC,085157.738,A,4820.437,N,00445.043,W,666.6,160.2,280524,000.0,W*6A
$GPGGA,085158.738,4820.257,N,00444.978,W,1,12,1.0,0.0,M,0.0,M,,*7D
$GPGSA,A,3,01,02,03,04,05,06,07,08,09,10,11,12,1.0,1.0,1.0*30
$GPRMC,085158.738,A,4820.257,N,00444.978,W,666.6,160.2,280524,000.0,W*65
$GPGGA,085159.738,4820.077,N,00444.913,W,1,12,1.0,0.0,M,0.0,M,,*71
$GPGSA,A,3,01,02,03,04,05,06,07,08,09,10,11,12,1.0,1.0,1.0*30
$GPRMC,085159.738,A,4820.077,N,00444.913,W,666.6,160.2,280524,000.0,W*69
$GPGGA,085200.738,4819.897,N,00444.848,W,1,12,1.0,0.0,M,0.0,M,,*7D
$GPGSA,A,3,01,02,03,04,05,06,07,08,09,10,11,12,1.0,1.0,1.0*30
$GPRMC,085200.738,A,4819.897,N,00444.848,W,666.6,160.2,280524,000.0,W*65
$GPGGA,085201.738,4819.717,N,00444.783,W,1,12,1.0,0.0,M,0.0,M,,*73
$GPGSA,A,3,01,02,03,04,05,06,07,08,09,10,11,12,1.0,1.0,1.0*30
$GPRMC,085201.738,A,4819.717,N,00444.783,W,666.6,160.2,280524,000.0,W*6B
$GPGGA,085202.738,4819.537,N,00444.718,W,1,12,1.0,0.0,M,0.0,M,,*72
$GPGSA,A,3,01,02,03,04,05,06,07,08,09,10,11,12,1.0,1.0,1.0*30
$GPRMC,085202.738,A,4819.537,N,00444.718,W,666.6,160.2,280524,000.0,W*6A
$GPGGA,085203.738,4819.357,N,00444.653,W,1,12,1.0,0.0,M,0.0,M,,*7D
$GPGSA,A,3,01,02,03,04,05,06,07,08,09,10,11,12,1.0,1.0,1.0*30
$GPRMC,085203.738,A,4819.357,N,00444.653,W,666.6,160.2,280524,000.0,W*65
$GPGGA,085204.738,4819.177,N,00444.588,W,1,12,1.0,0.0,M,0.0,M,,*7F
$GPGSA,A,3,01,02,03,04,05,06,07,08,09,10,11,12,1.0,1.0,1.0*30
$GPRMC,085204.738,A,4819.177,N,00444.588,W,666.6,160.2,280524,000.0,W*67
$GPGGA,085205.738,4818.997,N,00444.523,W,1,12,1.0,0.0,M,0.0,M,,*78
$GPGSA,A,3,01,02,03,04,05,06,07,08,09,10,11,12,1.0,1.0,1.0*30
$GPRMC,085205.738,A,4818.997,N,00444.523,W,666.6,160.2,280524,000.0,W*60
$GPGGA,085206.738,4818.817,N,00444.458,W,1,12,1.0,0.0,M,0.0,M,,*7F
$GPGSA,A,3,01,02,03,04,05,06,07,08,09,10,11,12,1.0,1.0,1.0*30
$GPRMC,085206.738,A,4818.817,N,00444.458,W,666.7,160.2,280524,000.0,W*66
$GPGGA,085207.738,4818.638,N,00444.393,W,1,12,1.0,0.0,M,0.0,M,,*7D
$GPGSA,A,3,01,02,03,04,05,06,07,08,09,10,11,12,1.0,1.0,1.0*30
$GPRMC,085207.738,A,4818.638,N,00444.393,W,666.7,160.2,280524,000.0,W*64
$GPGGA,085208.738,4818.458,N,00444.328,W,1,12,1.0,0.0,M,0.0,M,,*76
$GPGSA,A,3,01,02,03,04,05,06,07,08,09,10,11,12,1.0,1.0,1.0*30
$GPRMC,085208.738,A,4818.458,N,00444.328,W,666.7,160.2,280524,000.0,W*6F
$GPGGA,085209.738,4818.278,N,00444.263,W,1,12,1.0,0.0,M,0.0,M,,*7D
$GPGSA,A,3,01,02,03,04,05,06,07,08,09,10,11,12,1.0,1.0,1.0*30
$GPRMC,085209.738,A,4818.278,N,00444.263,W,666.7,160.2,280524,000.0,W*64
$GPGGA,085210.738,4818.098,N,00444.198,W,1,12,1.0,0.0,M,0.0,M,,*7E
$GPGSA,A,3,01,02,03,04,05,06,07,08,09,10,11,12,1.0,1.0,1.0*30
$GPRMC,085210.738,A,4818.098,N,00444.198,W,666.7,160.2,280524,000.0,W*67
$GPGGA,085211.738,4817.918,N,00444.133,W,1,12,1.0,0.0,M,0.0,M,,*70
$GPGSA,A,3,01,02,03,04,05,06,07,08,09,10,11,12,1.0,1.0,1.0*30
$GPRMC,085211.738,A,4817.918,N,00444.133,W,666.7,160.2,280524,000.0,W*69
$GPGGA,085212.738,4817.738,N,00444.067,W,1,12,1.0,0.0,M,0.0,M,,*7F
$GPGSA,A,3,01,02,03,04,05,06,07,08,09,10,11,12,1.0,1.0,1.0*30
$GPRMC,085212.738,A,4817.738,N,00444.067,W,666.7,160.2,280524,000.0,W*66
$GPGGA,085213.738,4817.558,N,00444.002,W,1,12,1.0,0.0,M,0.0,M,,*79
$GPGSA,A,3,01,02,03,04,05,06,07,08,09,10,11,12,1.0,1.0,1.0*30
$GPRMC,085213.738,A,4817.558,N,00444.002,W,666.7,160.2,280524,000.0,W*60
$GPGGA,085214.738,4817.378,N,00443.937,W,1,12,1.0,0.0,M,0.0,M,,*72
$GPGSA,A,3,01,02,03,04,05,06,07,08,09,10,11,12,1.0,1.0,1.0*30
$GPRMC,085214.738,A,4817.378,N,00443.937,W,666.7,160.2,280524,000.0,W*6B
$GPGGA,085215.738,4817.198,N,00443.872,W,1,12,1.0,0.0,M,0.0,M,,*7F
$GPGSA,A,3,01,02,03,04,05,06,07,08,09,10,11,12,1.0,1.0,1.0*30
$GPRMC,085215.738,A,4817.198,N,00443.872,W,666.7,160.2,280524,000.0,W*66
$GPGGA,085216.738,4817.018,N,00443.807,W,1,12,1.0,0.0,M,0.0,M,,*77
$GPGSA,A,3,01,02,03,04,05,06,07,08,09,10,11,12,1.0,1.0,1.0*30
$GPRMC,085216.738,A,4817.018,N,00443.807,W,666.7,160.2,280524,000.0,W*6E
$GPGGA,085217.738,4816.838,N,00443.742,W,1,12,1.0,0.0,M,0.0,M,,*73
$GPGSA,A,3,01,02,03,04,05,06,07,08,09,10,11,12,1.0,1.0,1.0*30
$GPRMC,085217.738,A,4816.838,N,00443.742,W,666.7,160.2,280524,000.0,W*6A
$GPGGA,085218.738,4816.658,N,00443.677,W,1,12,1.0,0.0,M,0.0,M,,*73
$GPGSA,A,3,01,02,03,04,05,06,07,08,09,10,11,12,1.0,1.0,1.0*30
$GPRMC,085218.738,A,4816.658,N,00443.677,W,666.7,160.2,280524,000.0,W*6A
$GPGGA,085219.738,4816.478,N,00443.612,W,1,12,1.0,0.0,M,0.0,M,,*71
$GPGSA,A,3,01,02,03,04,05,06,07,08,09,10,11,12,1.0,1.0,1.0*30
$GPRMC,085219.738,A,4816.478,N,00443.612,W,666.7,160.2,280524,000.0,W*68
$GPGGA,085220.738,4816.298,N,00443.547,W,1,12,1.0,0.0,M,0.0,M,,*70
$GPGSA,A,3,01,02,03,04,05,06,07,08,09,10,11,12,1.0,1.0,1.0*30
$GPRMC,085220.738,A,4816.298,N,00443.547,W,666.7,160.2,280524,000.0,W*69
$GPGGA,085221.738,4816.118,N,00443.482,W,1,12,1.0,0.0,M,0.0,M,,*72
$GPGSA,A,3,01,02,03,04,05,06,07,08,09,10,11,12,1.0,1.0,1.0*30
$GPRMC,085221.738,A,4816.118,N,00443.482,W,666.7,160.2,280524,000.0,W*6B
$GPGGA,085222.738,4815.939,N,00443.417,W,1,12,1.0,0.0,M,0.0,M,,*75
$GPGSA,A,3,01,02,03,04,05,06,07,08,09,10,11,12,1.0,1.0,1.0*30
$GPRMC,085222.738,A,4815.939,N,00443.417,W,666.7,160.2,280524,000.0,W*6C
$GPGGA,085223.738,4815.759,N,00443.352,W,1,12,1.0,0.0,M,0.0,M,,*7A
$GPGSA,A,3,01,02,03,04,05,06,07,08,09,10,11,12,1.0,1.0,1.0*30
$GPRMC,085223.738,A,4815.759,N,00443.352,W,666.7,160.2,280524,000.0,W*63
$GPGGA,085224.738,4815.579,N,00443.287,W,1,12,1.0,0.0,M,0.0,M,,*74
$GPGSA,A,3,01,02,03,04,05,06,07,08,09,10,11,12,1.0,1.0,1.0*30
$GPRMC,085224.738,A,4815.579,N,00443.287,W,666.7,160.2,280524,000.0,W*6D
$GPGGA,085225.738,4815.399,N,00443.222,W,1,12,1.0,0.0,M,0.0,M,,*72
$GPGSA,A,3,01,02,03,04,05,06,07,08,09,10,11,12,1.0,1.0,1.0*30
$GPRMC,085225.738,A,4815.399,N,00443.222,W,666.7,160.2,280524,000.0,W*6B
$GPGGA,085226.738,4815.219,N,00443.157,W,1,12,1.0,0.0,M,0.0,M,,*79
$GPGSA,A,3,01,02,03,04,05,06,07,08,09,10,11,12,1.0,1.0,1.0*30
$GPRMC,085226.738,A,4815.219,N,00443.157,W,666.7,160.2,280524,000.0,W*60
$GPGGA,085227.738,4815.039,N,00443.092,W,1,12,1.0,0.0,M,0.0,M,,*70
$GPGSA,A,3,01,02,03,04,05,06,07,08,09,10,11,12,1.0,1.0,1.0*30
$GPRMC,085227.738,A,4815.039,N,00443.092,W,666.7,160.2,280524,000.0,W*69
$GPGGA,085228.738,4814.859,N,00443.027,W,1,12,1.0,0.0,M,0.0,M,,*7E
$GPGSA,A,3,01,02,03,04,05,06,07,08,09,10,11,12,1.0,1.0,1.0*30
$GPRMC,085228.738,A,4814.859,N,00443.027,W,666.7,160.2,280524,000.0,W*67
$GPGGA,085229.738,4814.679,N,00442.962,W,1,12,1.0,0.0,M,0.0,M,,*7A
$GPGSA,A,3,01,02,03,04,05,06,07,08,09,10,11,12,1.0,1.0,1.0*30
$GPRMC,085229.738,A,4814.679,N,00442.962,W,666.7,160.2,280524,000.0,W*63
$GPGGA,085230.738,4814.499,N,00442.897,W,1,12,1.0,0.0,M,0.0,M,,*75
$GPGSA,A,3,01,02,03,04,05,06,07,08,09,10,11,12,1.0,1.0,1.0*30
$GPRMC,085230.738,A,4814.499,N,00442.897,W,666.7,160.2,280524,000.0,W*6C
$GPGGA,085231.738,4814.319,N,00442.832,W,1,12,1.0,0.0,M,0.0,M,,*74
$GPGSA,A,3,01,02,03,04,05,06,07,08,09,10,11,12,1.0,1.0,1.0*30
$GPRMC,085231.738,A,4814.319,N,00442.832,W,666.7,160.2,280524,000.0,W*6D
$GPGGA,085232.738,4814.139,N,00442.767,W,1,12,1.0,0.0,M,0.0,M,,*78
$GPGSA,A,3,01,02,03,04,05,06,07,08,09,10,11,12,1.0,1.0,1.0*30
$GPRMC,085232.738,A,4814.139,N,00442.767,W,666.7,160.2,280524,000.0,W*61
$GPGGA,085233.738,4813.959,N,00442.702,W,1,12,1.0,0.0,M,0.0,M,,*73
$GPGSA,A,3,01,02,03,04,05,06,07,08,09,10,11,12,1.0,1.0,1.0*30
$GPRMC,085233.738,A,4813.959,N,00442.702,W,666.7,160.2,280524,000.0,W*6A
$GPGGA,085234.738,4813.779,N,00442.637,W,1,12,1.0,0.0,M,0.0,M,,*7F
$GPGSA,A,3,01,02,03,04,05,06,07,08,09,10,11,12,1.0,1.0,1.0*30
$GPRMC,085234.738,A,4813.779,N,00442.637,W,666.7,160.2,280524,000.0,W*66
$GPGGA,085235.738,4813.599,N,00442.572,W,1,12,1.0,0.0,M,0.0,M,,*70
$GPGSA,A,3,01,02,03,04,05,06,07,08,09,10,11,12,1.0,1.0,1.0*30
$GPRMC,085235.738,A,4813.599,N,00442.572,W,666.7,160.2,280524,000.0,W*69
$GPGGA,085236.738,4813.419,N,00442.507,W,1,12,1.0,0.0,M,0.0,M,,*78
$GPGSA,A,3,01,02,03,04,05,06,07,08,09,10,11,12,1.0,1.0,1.0*30
$GPRMC,085236.738,A,4813.419,N,00442.507,W,666.7,160.2,280524,000.0,W*61
$GPGGA,085237.738,4813.240,N,00442.442,W,1,12,1.0,0.0,M,0.0,M,,*73
$GPGSA,A,3,01,02,03,04,05,06,07,08,09,10,11,12,1.0,1.0,1.0*30
$GPRMC,085237.738,A,4813.240,N,00442.442,W,666.7,160.2,280524,000.0,W*6A
$GPGGA,085238.738,4813.060,N,00442.377,W,1,12,1.0,0.0,M,0.0,M,,*7D
$GPGSA,A,3,01,02,03,04,05,06,07,08,09,10,11,12,1.0,1.0,1.0*30
$GPRMC,085238.738,A,4813.060,N,00442.377,W,666.7,160.2,280524,000.0,W*64
$GPGGA,085239.738,4812.880,N,00442.312,W,1,12,1.0,0.0,M,0.0,M,,*78
$GPGSA,A,3,01,02,03,04,05,06,07,08,09,10,11,12,1.0,1.0,1.0*30
$GPRMC,085239.738,A,4812.880,N,00442.312,W,666.7,160.2,280524,000.0,W*61
$GPGGA,085240.738,4812.700,N,00442.247,W,1,12,1.0,0.0,M,0.0,M,,*70
$GPGSA,A,3,01,02,03,04,05,06,07,08,09,10,11,12,1.0,1.0,1.0*30
$GPRMC,085240.738,A,4812.700,N,00442.247,W,666.7,160.2,280524,000.0,W*69
$GPGGA,085241.738,4812.520,N,00442.182,W,1,12,1.0,0.0,M,0.0,M,,*7B
$GPGSA,A,3,01,02,03,04,05,06,07,08,09,10,11,12,1.0,1.0,1.0*30
$GPRMC,085241.738,A,4812.520,N,00442.182,W,666.7,160.2,280524,000.0,W*62
$GPGGA,085242.738,4812.340,N,00442.117,W,1,12,1.0,0.0,M,0.0,M,,*74
$GPGSA,A,3,01,02,03,04,05,06,07,08,09,10,11,12,1.0,1.0,1.0*30
$GPRMC,085242.738,A,4812.340,N,00442.117,W,666.7,160.2,280524,000.0,W*6D
$GPGGA,085243.738,4812.160,N,00442.052,W,1,12,1.0,0.0,M,0.0,M,,*75
$GPGSA,A,3,01,02,03,04,05,06,07,08,09,10,11,12,1.0,1.0,1.0*30
$GPRMC,085243.738,A,4812.160,N,00442.052,W,666.7,160.2,280524,000.0,W*6C
$GPGGA,085244.738,4811.980,N,00441.987,W,1,12,1.0,0.0,M,0.0,M,,*75
$GPGSA,A,3,01,02,03,04,05,06,07,08,09,10,11,12,1.0,1.0,1.0*30
$GPRMC,085244.738,A,4811.980,N,00441.987,W,666.7,160.2,280524,000.0,W*6C
$GPGGA,085245.738,4811.800,N,00441.922,W,1,12,1.0,0.0,M,0.0,M,,*72
$GPGSA,A,3,01,02,03,04,05,06,07,08,09,10,11,12,1.0,1.0,1.0*30
$GPRMC,085245.738,A,4811.800,N,00441.922,W,666.7,160.2,280524,000.0,W*6B
$GPGGA,085246.738,4811.620,N,00441.857,W,1,12,1.0,0.0,M,0.0,M,,*7E
$GPGSA,A,3,01,02,03,04,05,06,07,08,09,10,11,12,1.0,1.0,1.0*30
$GPRMC,085246.738,A,4811.620,N,00441.857,W,666.7,160.2,280524,000.0,W*67
$GPGGA,085247.738,4811.440,N,00441.792,W,1,12,1.0,0.0,M,0.0,M,,*7D
$GPGSA,A,3,01,02,03,04,05,06,07,08,09,10,11,12,1.0,1.0,1.0*30
$GPRMC,085247.738,A,4811.440,N,00441.792,W,666.7,160.2,280524,000.0,W*64
$GPGGA,085248.738,4811.260,N,00441.727,W,1,12,1.0,0.0,M,0.0,M,,*78
$GPGSA,A,3,01,02,03,04,05,06,07,08,09,10,11,12,1.0,1.0,1.0*30
$GPRMC,085248.738,A,4811.260,N,00441.727,W,666.7,160.2,280524,000.0,W*61
$GPGGA,085249.738,4811.080,N,00441.662,W,1,12,1.0,0.0,M,0.0,M,,*75
$GPGSA,A,3,01,02,03,04,05,06,07,08,09,10,11,12,1.0,1.0,1.0*30
$GPRMC,085249.738,A,4811.080,N,00441.662,W,666.7,160.2,280524,000.0,W*6C
$GPGGA,085250.738,4810.900,N,00441.597,W,1,12,1.0,0.0,M,0.0,M,,*74
$GPGSA,A,3,01,02,03,04,05,06,07,08,09,10,11,12,1.0,1.0,1.0*30
$GPRMC,085250.738,A,4810.900,N,00441.597,W,666.7,160.2,280524,000.0,W*6D
$GPGGA,085251.738,4810.721,N,00441.532,W,1,12,1.0,0.0,M,0.0,M,,*77
$GPGSA,A,3,01,02,03,04,05,06,07,08,09,10,11,12,1.0,1.0,1.0*30
$GPRMC,085251.738,A,4810.721,N,00441.532,W,666.7,160.2,280524,000.0,W*6E
$GPGGA,085252.738,4810.541,N,00441.467,W,1,12,1.0,0.0,M,0.0,M,,*71
$GPGSA,A,3,01,02,03,04,05,06,07,08,09,10,11,12,1.0,1.0,1.0*30
$GPRMC,085252.738,A,4810.541,N,00441.467,W,666.7,160.2,280524,000.0,W*68
$GPGGA,085253.738,4810.361,N,00441.402,W,1,12,1.0,0.0,M,0.0,M,,*77
$GPGSA,A,3,01,02,03,04,05,06,07,08,09,10,11,12,1.0,1.0,1.0*30
$GPRMC,085253.738,A,4810.361,N,00441.402,W,666.8,160.2,280524,000.0,W*61
$GPGGA,085254.738,4810.181,N,00441.336,W,1,12,1.0,0.0,M,0.0,M,,*7C
$GPGSA,A,3,01,02,03,04,05,06,07,08,09,10,11,12,1.0,1.0,1.0*30
$GPRMC,085254.738,A,4810.181,N,00441.336,W,666.8,160.2,280524,000.0,W*6A
$GPGGA,085255.738,4810.001,N,00441.271,W,1,12,1.0,0.0,M,0.0,M,,*76
$GPGSA,A,3,01,02,03,04,05,06,07,08,09,10,11,12,1.0,1.0,1.0*30
$GPRMC,085255.738,A,4810.001,N,00441.271,W,666.8,160.2,280524,000.0,W*60
$GPGGA,085256.738,4809.821,N,00441.206,W,1,12,1.0,0.0,M,0.0,M,,*77
$GPGSA,A,3,01,02,03,04,05,06,07,08,09,10,11,12,1.0,1.0,1.0*30
$GPRMC,085256.738,A,4809.821,N,00441.206,W,666.8,160.2,280524,000.0,W*61
$GPGGA,085257.738,4809.641,N,00441.141,W,1,12,1.0,0.0,M,0.0,M,,*7E
$GPGSA,A,3,01,02,03,04,05,06,07,08,09,10,11,12,1.0,1.0,1.0*30
$GPRMC,085257.738,A,4809.641,N,00441.141,W,666.8,160.2,280524,000.0,W*68
$GPGGA,085258.738,4809.461,N,00441.076,W,1,12,1.0,0.0,M,0.0,M,,*74
$GPGSA,A,3,01,02,03,04,05,06,07,08,09,10,11,12,1.0,1.0,1.0*30
$GPRMC,085258.738,A,4809.461,N,00441.076,W,666.8,160.2,280524,000.0,W*62
$GPGGA,085259.738,4809.281,N,00441.011,W,1,12,1.0,0.0,M,0.0,M,,*7C
$GPGSA,A,3,01,02,03,04,05,06,07,08,09,10,11,12,1.0,1.0,1.0*30
$GPRMC,085259.738,A,4809.281,N,00441.011,W,666.8,160.2,280524,000.0,W*6A
$GPGGA,085300.738,4809.101,N,00440.946,W,1,12,1.0,0.0,M,0.0,M,,*70
$GPGSA,A,3,01,02,03,04,05,06,07,08,09,10,11,12,1.0,1.0,1.0*30
$GPRMC,085300.738,A,4809.101,N,00440.946,W,666.8,160.2,280524,000.0,W*66
$GPGGA,085301.738,4808.921,N,00440.881,W,1,12,1.0,0.0,M,0.0,M,,*70
$GPGSA,A,3,01,02,03,04,05,06,07,08,09,10,11,12,1.0,1.0,1.0*30
$GPRMC,085301.738,A,4808.921,N,00440.881,W,666.8,160.2,280524,000.0,W*66
$GPGGA,085302.738,4808.741,N,00440.816,W,1,12,1.0,0.0,M,0.0,M,,*75
$GPGSA,A,3,01,02,03,04,05,06,07,08,09,10,11,12,1.0,1.0,1.0*30
$GPRMC,085302.738,A,4808.741,N,00440.816,W,666.8,160.2,280524,000.0,W*63
$GPGGA,085303.738,4808.561,N,00440.751,W,1,12,1.0,0.0,M,0.0,M,,*78
$GPGSA,A,3,01,02,03,04,05,06,07,08,09,10,11,12,1.0,1.0,1.0*30
$GPRMC,085303.738,A,4808.561,N,00440.751,W,666.8,160.2,280524,000.0,W*6E
$GPGGA,085304.738,4808.381,N,00440.686,W,1,12,1.0,0.0,M,0.0,M,,*7C
$GPGSA,A,3,01,02,03,04,05,06,07,08,09,10,11,12,1.0,1.0,1.0*30
$GPRMC,085304.738,A,4808.381,N,00440.686,W,666.8,160.2,280524,000.0,W*6A
$GPGGA,085305.738,4808.201,N,00440.621,W,1,12,1.0,0.0,M,0.0,M,,*79
$GPGSA,A,3,01,02,03,04,05,06,07,08,09,10,11,12,1.0,1.0,1.0*30
$GPRMC,085305.738,A,4808.201,N,00440.621,W,666.8,160.2,280524,000.0,W*6F
$GPGGA,085306.738,4808.022,N,00440.556,W,1,12,1.0,0.0,M,0.0,M,,*7A
$GPGSA,A,3,01,02,03,04,05,06,07,08,09,10,11,12,1.0,1.0,1.0*30
$GPRMC,085306.738,A,4808.022,N,00440.556,W,666.8,160.2,280524,000.0,W*6C
$GPGGA,085307.738,4807.842,N,00440.491,W,1,12,1.0,0.0,M,0.0,M,,*70
$GPGSA,A,3,01,02,03,04,05,06,07,08,09,10,11,12,1.0,1.0,1.0*30
$GPRMC,085307.738,A,4807.842,N,00440.491,W,666.8,160.2,280524,000.0,W*66
$GPGGA,085308.738,4807.662,N,00440.426,W,1,12,1.0,0.0,M,0.0,M,,*7F
$GPGSA,A,3,01,02,03,04,05,06,07,08,09,10,11,12,1.0,1.0,1.0*30
$GPRMC,085308.738,A,4807.662,N,00440.426,W,666.8,160.2,280524,000.0,W*69
$GPGGA,085309.738,4807.482,N,00440.361,W,1,12,1.0,0.0,M,0.0,M,,*76
$GPGSA,A,3,01,02,03,04,05,06,07,08,09,10,11,12,1.0,1.0,1.0*30
$GPRMC,085309.738,A,4807.482,N,00440.361,W,666.8,160.2,280524,000.0,W*60
$GPGGA,085310.738,4807.302,N,00440.296,W,1,12,1.0,0.0,M,0.0,M,,*78
$GPGSA,A,3,01,02,03,04,05,06,07,08,09,10,11,12,1.0,1.0,1.0*30
$GPRMC,085310.738,A,4807.302,N,00440.296,W,666.8,160.2,280524,000.0,W*6E
$GPGGA,085311.738,4807.122,N,00440.231,W,1,12,1.0,0.0,M,0.0,M,,*74
$GPGSA,A,3,01,02,03,04,05,06,07,08,09,10,11,12,1.0,1.0,1.0*30
$GPRMC,085311.738,A,4807.122,N,00440.231,W,666.8,160.2,280524,000.0,W*62
$GPGGA,085312.738,4806.942,N,00440.166,W,1,12,1.0,0.0,M,0.0,M,,*79
$GPGSA,A,3,01,02,03,04,05,06,07,08,09,10,11,12,1.0,1.0,1.0*30
$GPRMC,085312.738,A,4806.942,N,00440.166,W,666.8,160.2,280524,000.0,W*6F
$GPGGA,085313.738,4806.762,N,00440.101,W,1,12,1.0,0.0,M,0.0,M,,*75
$GPGSA,A,3,01,02,03,04,05,06,07,08,09,10,11,12,1.0,1.0,1.0*30
$GPRMC,085313.738,A,4806.762,N,00440.101,W,666.8,160.2,280524,000.0,W*63
$GPGGA,085314.738,4806.582,N,00440.036,W,1,12,1.0,0.0,M,0.0,M,,*7B
$GPGSA,A,3,01,02,03,04,05,06,07,08,09,10,11,12,1.0,1.0,1.0*30
$GPRMC,085314.738,A,4806.582,N,00440.036,W,666.8,160.2,280524,000.0,W*6D
$GPGGA,085315.738,4806.402,N,00439.971,W,1,12,1.0,0.0,M,0.0,M,,*77
$GPGSA,A,3,01,02,03,04,05,06,07,08,09,10,11,12,1.0,1.0,1.0*30
$GPRMC,085315.738,A,4806.402,N,00439.971,W,666.8,160.2,280524,000.0,W*61
$GPGGA,085316.738,4806.222,N,00439.906,W,1,12,1.0,0.0,M,0.0,M,,*70
$GPGSA,A,3,01,02,03,04,05,06,07,08,09,10,11,12,1.0,1.0,1.0*30
$GPRMC,085316.738,A,4806.222,N,00439.906,W,666.8,160.2,280524,000.0,W*66
$GPGGA,085317.738,4806.042,N,00439.841,W,1,12,1.0,0.0,M,0.0,M,,*77
$GPGSA,A,3,01,02,03,04,05,06,07,08,09,10,11,12,1.0,1.0,1.0*30
$GPRMC,085317.738,A,4806.042,N,00439.841,W,666.8,160.2,280524,000.0,W*61
$GPGGA,085318.738,4805.862,N,00439.776,W,1,12,1.0,0.0,M,0.0,M,,*7A
$GPGSA,A,3,01,02,03,04,05,06,07,08,09,10,11,12,1.0,1.0,1.0*30
$GPRMC,085318.738,A,4805.862,N,00439.776,W,666.8,160.2,280524,000.0,W*6C
$GPGGA,085319.738,4805.682,N,00439.711,W,1,12,1.0,0.0,M,0.0,M,,*7A
$GPGSA,A,3,01,02,03,04,05,06,07,08,09,10,11,12,1.0,1.0,1.0*30
$GPRMC,085319.738,A,4805.682,N,00439.711,W,666.8,160.2,280524,000.0,W*6C
$GPGGA,085320.738,4805.502,N,00439.646,W,1,12,1.0,0.0,M,0.0,M,,*78
$GPGSA,A,3,01,02,03,04,05,06,07,08,09,10,11,12,1.0,1.0,1.0*30
$GPRMC,085320.738,A,4805.502,N,00439.646,W,666.8,160.2,280524,000.0,W*6E
$GPGGA,085321.738,4805.323,N,00439.581,W,1,12,1.0,0.0,M,0.0,M,,*74
$GPGSA,A,3,01,02,03,04,05,06,07,08,09,10,11,12,1.0,1.0,1.0*30
$GPRMC,085321.738,A,4805.323,N,00439.581,W,666.8,160.2,280524,000.0,W*62
$GPGGA,085322.738,4805.143,N,00439.516,W,1,12,1.0,0.0,M,0.0,M,,*7D
$GPGSA,A,3,01,02,03,04,05,06,07,08,09,10,11,12,1.0,1.0,1.0*30
$GPRMC,085322.738,A,4805.143,N,00439.516,W,666.8,160.2,280524,000.0,W*6B
$GPGGA,085323.738,4804.963,N,00439.451,W,1,12,1.0,0.0,M,0.0,M,,*75
$GPGSA,A,3,01,02,03,04,05,06,07,08,09,10,11,12,1.0,1.0,1.0*30
$GPRMC,085323.738,A,4804.963,N,00439.451,W,666.8,160.2,280524,000.0,W*63
$GPGGA,085324.738,4804.783,N,00439.386,W,1,12,1.0,0.0,M,0.0,M,,*7F
$GPGSA,A,3,01,02,03,04,05,06,07,08,09,10,11,12,1.0,1.0,1.0*30
$GPRMC,085324.738,A,4804.783,N,00439.386,W,666.8,160.2,280524,000.0,W*69
$GPGGA,085325.738,4804.603,N,00439.321,W,1,12,1.0,0.0,M,0.0,M,,*7A
$GPGSA,A,3,01,02,03,04,05,06,07,08,09,10,11,12,1.0,1.0,1.0*30
$GPRMC,085325.738,A,4804.603,N,00439.321,W,666.8,160.2,280524,000.0,W*6C
$GPGGA,085326.738,4804.423,N,00439.256,W,1,12,1.0,0.0,M,0.0,M,,*78
$GPGSA,A,3,01,02,03,04,05,06,07,08,09,10,11,12,1.0,1.0,1.0*30
$GPRMC,085326.738,A,4804.423,N,00439.256,W,666.8,160.2,280524,000.0,W*6E
$GPGGA,085327.738,4804.243,N,00439.191,W,1,12,1.0,0.0,M,0.0,M,,*71
$GPGSA,A,3,01,02,03,04,05,06,07,08,09,10,11,12,1.0,1.0,1.0*30
$GPRMC,085327.738,A,4804.243,N,00439.191,W,666.8,160.2,280524,000.0,W*67
$GPGGA,085328.738,4804.063,N,00439.126,W,1,12,1.0,0.0,M,0.0,M,,*72
$GPGSA,A,3,01,02,03,04,05,06,07,08,09,10,11,12,1.0,1.0,1.0*30
$GPRMC,085328.738,A,4804.063,N,00439.126,W,666.8,160.2,280524,000.0,W*64
$GPGGA,085329.738,4803.883,N,00439.061,W,1,12,1.0,0.0,M,0.0,M,,*70
$GPGSA,A,3,01,02,03,04,05,06,07,08,09,10,11,12,1.0,1.0,1.0*30
$GPRMC,085329.738,A,4803.883,N,00439.061,W,666.8,160.2,280524,000.0,W*66
$GPGGA,085330.738,4803.703,N,00438.996,W,1,12,1.0,0.0,M,0.0,M,,*7F
$GPGSA,A,3,01,02,03,04,05,06,07,08,09,10,11,12,1.0,1.0,1.0*30
$GPRMC,085330.738,A,4803.703,N,00438.996,W,666.8,160.2,280524,000.0,W*69
$GPGGA,085331.738,4803.523,N,00438.931,W,1,12,1.0,0.0,M,0.0,M,,*73
$GPGSA,A,3,01,02,03,04,05,06,07,08,09,10,11,12,1.0,1.0,1.0*30
$GPRMC,085331.738,A,4803.523,N,00438.931,W,666.8,160.2,280524,000.0,W*65
$GPGGA,085332.738,4803.343,N,00438.866,W,1,12,1.0,0.0,M,0.0,M,,*73
$GPGSA,A,3,01,02,03,04,05,06,07,08,09,10,11,12,1.0,1.0,1.0*30
$GPRMC,085332.738,A,4803.343,N,00438.866,W,666.8,160.2,280524,000.0,W*65
$GPGGA,085333.738,4803.163,N,00438.801,W,1,12,1.0,0.0,M,0.0,M,,*73
$GPGSA,A,3,01,02,03,04,05,06,07,08,09,10,11,12,1.0,1.0,1.0*30
$GPRMC,085333.738,A,4803.163,N,00438.801,W,666.8,160.2,280524,000.0,W*65
$GPGGA,085334.738,4802.983,N,00438.736,W,1,12,1.0,0.0,M,0.0,M,,*78
$GPGSA,A,3,01,02,03,04,05,06,07,08,09,10,11,12,1.0,1.0,1.0*30
$GPRMC,085334.738,A,4802.983,N,00438.736,W,666.8,160.2,280524,000.0,W*6E
$GPGGA,085335.738,4802.804,N,00438.670,W,1,12,1.0,0.0,M,0.0,M,,*74
$GPGSA,A,3,01,02,03,04,05,06,07,08,09,10,11,12,1.0,1.0,1.0*30
$GPRMC,085335.738,A,4802.804,N,00438.670,W,666.8,160.2,280524,000.0,W*62
$GPGGA,085336.738,4802.624,N,00438.605,W,1,12,1.0,0.0,M,0.0,M,,*79
$GPGSA,A,3,01,02,03,04,05,06,07,08,09,10,11,12,1.0,1.0,1.0*30
$GPRMC,085336.738,A,4802.624,N,00438.605,W,666.8,160.2,280524,000.0,W*6F
$GPGGA,085337.738,4802.444,N,00438.540,W,1,12,1.0,0.0,M,0.0,M,,*7E
$GPGSA,A,3,01,02,03,04,05,06,07,08,09,10,11,12,1.0,1.0,1.0*30
$GPRMC,085337.738,A,4802.444,N,00438.540,W,666.8,160.2,280524,000.0,W*68
$GPGGA,085338.738,4802.264,N,00438.475,W,1,12,1.0,0.0,M,0.0,M,,*72
$GPGSA,A,3,01,02,03,04,05,06,07,08,09,10,11,12,1.0,1.0,1.0*30
$GPRMC,085338.738,A,4802.264,N,00438.475,W,666.8,160.2,280524,000.0,W*64
$GPGGA,085339.738,4802.084,N,00438.410,W,1,12,1.0,0.0,M,0.0,M,,*7C
$GPGSA,A,3,01,02,03,04,05,06,07,08,09,10,11,12,1.0,1.0,1.0*30
$GPRMC,085339.738,A,4802.084,N,00438.410,W,666.8,160.2,280524,000.0,W*6A
$GPGGA,085340.738,4801.904,N,00438.345,W,1,12,1.0,0.0,M,0.0,M,,*77
$GPGSA,A,3,01,02,03,04,05,06,07,08,09,10,11,12,1.0,1.0,1.0*30
$GPRMC,085340.738,A,4801.904,N,00438.345,W,666.9,160.2,280524,000.0,W*60
$GPGGA,085341.738,4801.724,N,00438.280,W,1,12,1.0,0.0,M,0.0,M,,*72
$GPGSA,A,3,01,02,03,04,05,06,07,08,09,10,11,12,1.0,1.0,1.0*30
$GPRMC,085341.738,A,4801.724,N,00438.280,W,666.9,160.2,280524,000.0,W*65
$GPGGA,085342.738,4801.544,N,00438.215,W,1,12,1.0,0.0,M,0.0,M,,*79
$GPGSA,A,3,01,02,03,04,05,06,07,08,09,10,11,12,1.0,1.0,1.0*30
$GPRMC,085342.738,A,4801.544,N,00438.215,W,666.9,160.2,280524,000.0,W*6E
$GPGGA,085343.738,4801.364,N,00438.150,W,1,12,1.0,0.0,M,0.0,M,,*7E
$GPGSA,A,3,01,02,03,04,05,06,07,08,09,10,11,12,1.0,1.0,1.0*30
$GPRMC,085343.738,A,4801.364,N,00438.150,W,666.9,160.2,280524,000.0,W*69
$GPGGA,085344.738,4801.184,N,00438.085,W,1,12,1.0,0.0,M,0.0,M,,*7C
$GPGSA,A,3,01,02,03,04,05,06,07,08,09,10,11,12,1.0,1.0,1.0*30
$GPRMC,085344.738,A,4801.184,N,00438.085,W,666.9,160.2,280524,000.0,W*6B
$GPGGA,085345.738,4801.004,N,00438.020,W,1,12,1.0,0.0,M,0.0,M,,*7B
$GPGSA,A,3,01,02,03,04,05,06,07,08,09,10,11,12,1.0,1.0,1.0*30
$GPRMC,085345.738,A,4801.004,N,00438.020,W,666.9,160.2,280524,000.0,W*6C
$GPGGA,085346.738,4800.824,N,00437.955,W,1,12,1.0,0.0,M,0.0,M,,*77
$GPGSA,A,3,01,02,03,04,05,06,07,08,09,10,11,12,1.0,1.0,1.0*30
$GPRMC,085346.738,A,4800.824,N,00437.955,W,666.9,160.2,280524,000.0,W*60
$GPGGA,085347.738,4800.644,N,00437.890,W,1,12,1.0,0.0,M,0.0,M,,*76
$GPGSA,A,3,01,02,03,04,05,06,07,08,09,10,11,12,1.0,1.0,1.0*30
$GPRMC,085347.738,A,4800.644,N,00437.890,W,666.9,160.2,280524,000.0,W*61
$GPGGA,085348.738,4800.464,N,00437.825,W,1,12,1.0,0.0,M,0.0,M,,*77
$GPGSA,A,3,01,02,03,04,05,06,07,08,09,10,11,12,1.0,1.0,1.0*30
$GPRMC,085348.738,A,4800.464,N,00437.825,W,666.9,160.2,280524,000.0,W*60
$GPGGA,085349.738,4800.284,N,00437.760,W,1,12,1.0,0.0,M,0.0,M,,*70
$GPGSA,A,3,01,02,03,04,05,06,07,08,09,10,11,12,1.0,1.0,1.0*30
$GPRMC,085349.738,A,4800.284,N,00437.760,W,666.9,160.2,280524,000.0,W*67
$GPGGA,085350.738,4800.105,N,00437.695,W,1,12,1.0,0.0,M,0.0,M,,*79
$GPGSA,A,3,01,02,03,04,05,06,07,08,09,10,11,12,1.0,1.0,1.0*30
$GPRMC,085350.738,A,4800.105,N,00437.695,W,666.9,160.2,280524,000.0,W*6E
$GPGGA,085351.738,4759.925,N,00437.630,W,1,12,1.0,0.0,M,0.0,M,,*7E
$GPGSA,A,3,01,02,03,04,05,06,07,08,09,10,11,12,1.0,1.0,1.0*30
$GPRMC,085351.738,A,4759.925,N,00437.630,W,666.9,160.2,280524,000.0,W*69
$GPGGA,085352.738,4759.745,N,00437.565,W,1,12,1.0,0.0,M,0.0,M,,*76
$GPGSA,A,3,01,02,03,04,05,06,07,08,09,10,11,12,1.0,1.0,1.0*30
$GPRMC,085352.738,A,4759.745,N,00437.565,W,666.9,160.2,280524,000.0,W*61
$GPGGA,085353.738,4759.565,N,00437.500,W,1,12,1.0,0.0,M,0.0,M,,*74
$GPGSA,A,3,01,02,03,04,05,06,07,08,09,10,11,12,1.0,1.0,1.0*30
$GPRMC,085353.738,A,4759.565,N,00437.500,W,666.9,160.2,280524,000.0,W*63
$GPGGA,085354.738,4759.385,N,00437.435,W,1,12,1.0,0.0,M,0.0,M,,*7C
$GPGSA,A,3,01,02,03,04,05,06,07,08,09,10,11,12,1.0,1.0,1.0*30
$GPRMC,085354.738,A,4759.385,N,00437.435,W,666.9,160.2,280524,000.0,W*6B
$GPGGA,085355.738,4759.205,N,00437.370,W,1,12,1.0,0.0,M,0.0,M,,*72
$GPGSA,A,3,01,02,03,04,05,06,07,08,09,10,11,12,1.0,1.0,1.0*30
$GPRMC,085355.738,A,4759.205,N,00437.370,W,666.9,160.2,280524,000.0,W*65
$GPGGA,085356.738,4759.025,N,00437.305,W,1,12,1.0,0.0,M,0.0,M,,*73
$GPGSA,A,3,01,02,03,04,05,06,07,08,09,10,11,12,1.0,1.0,1.0*30
$GPRMC,085356.738,A,4759.025,N,00437.305,W,666.9,160.2,280524,000.0,W*64
$GPGGA,085357.738,4758.845,N,00437.240,W,1,12,1.0,0.0,M,0.0,M,,*7D
$GPGSA,A,3,01,02,03,04,05,06,07,08,09,10,11,12,1.0,1.0,1.0*30
$GPRMC,085357.738,A,4758.845,N,00437.240,W,666.9,160.2,280524,000.0,W*6A
$GPGGA,085358.738,4758.665,N,00437.175,W,1,12,1.0,0.0,M,0.0,M,,*7B
$GPGSA,A,3,01,02,03,04,05,06,07,08,09,10,11,12,1.0,1.0,1.0*30
$GPRMC,085358.738,A,4758.665,N,00437.175,W,666.9,160.2,280524,000.0,W*6C
$GPGGA,085359.738,4758.485,N,00437.110,W,1,12,1.0,0.0,M,0.0,M,,*75
$GPGSA,A,3,01,02,03,04,05,06,07,08,09,10,11,12,1.0,1.0,1.0*30
$GPRMC,085359.738,A,4758.485,N,00437.110,W,666.9,160.2,280524,000.0,W*62
$GPGGA,085400.738,4758.305,N,00437.045,W,1,12,1.0,0.0,M,0.0,M,,*70
$GPGSA,A,3,01,02,03,04,05,06,07,08,09,10,11,12,1.0,1.0,1.0*30
$GPRMC,085400.738,A,4758.305,N,00437.045,W,665.5,100.4,280524,000.0,W*68
$GPGGA,085401.738,4758.257,N,00436.779,W,1,12,1.0,0.0,M,0.0,M,,*7E
$GPGSA,A,3,01,02,03,04,05,06,07,08,09,10,11,12,1.0,1.0,1.0*30
$GPRMC,085401.738,A,4758.257,N,00436.779,W,665.5,100.4,280524,000.0,W*66
$GPGGA,085402.738,4758.208,N,00436.513,W,1,12,1.0,0.0,M,0.0,M,,*79
$GPGSA,A,3,01,02,03,04,05,06,07,08,09,10,11,12,1.0,1.0,1.0*30
$GPRMC,085402.738,A,4758.208,N,00436.513,W,665.5,100.4,280524,000.0,W*61
$GPGGA,085403.738,4758.159,N,00436.246,W,1,12,1.0,0.0,M,0.0,M,,*78
$GPGSA,A,3,01,02,03,04,05,06,07,08,09,10,11,12,1.0,1.0,1.0*30
$GPRMC,085403.738,A,4758.159,N,00436.246,W,665.5,100.4,280524,000.0,W*60
$GPGGA,085404.738,4758.111,N,00435.980,W,1,12,1.0,0.0,M,0.0,M,,*71
$GPGSA,A,3,01,02,03,04,05,06,07,08,09,10,11,12,1.0,1.0,1.0*30
$GPRMC,085404.738,A,4758.111,N,00435.980,W,665.5,100.4,280524,000.0,W*69
$GPGGA,085405.738,4758.062,N,00435.714,W,1,12,1.0,0.0,M,0.0,M,,*76
$GPGSA,A,3,01,02,03,04,05,06,07,08,09,10,11,12,1.0,1.0,1.0*30
$GPRMC,085405.738,A,4758.062,N,00435.714,W,665.5,100.4,280524,000.0,W*6E
$GPGGA,085406.738,4758.013,N,00435.448,W,1,12,1.0,0.0,M,0.0,M,,*79
$GPGSA,A,3,01,02,03,04,05,06,07,08,09,10,11,12,1.0,1.0,1.0*30
$GPRMC,085406.738,A,4758.013,N,00435.448,W,665.5,100.4,280524,000.0,W*61
$GPGGA,085407.738,4757.965,N,00435.182,W,1,12,1.0,0.0,M,0.0,M,,*7C
$GPGSA,A,3,01,02,03,04,05,06,07,08,09,10,11,12,1.0,1.0,1.0*30
$GPRMC,085407.738,A,4757.965,N,00435.182,W,665.5,100.4,280524,000.0,W*64
$GPGGA,085408.738,4757.916,N,00434.916,W,1,12,1.0,0.0,M,0.0,M,,*73
$GPGSA,A,3,01,02,03,04,05,06,07,08,09,10,11,12,1.0,1.0,1.0*30
$GPRMC,085408.738,A,4757.916,N,00434.916,W,665.5,100.4,280524,000.0,W*6B
$GPGGA,085409.738,4757.867,N,00434.649,W,1,12,1.0,0.0,M,0.0,M,,*70
$GPGSA,A,3,01,02,03,04,05,06,07,08,09,10,11,12,1.0,1.0,1.0*30
$GPRMC,085409.738,A,4757.867,N,00434.649,W,665.6,100.4,280524,000.0,W*6B
$GPGGA,085410.738,4757.819,N,00434.383,W,1,12,1.0,0.0,M,0.0,M,,*72
$GPGSA,A,3,01,02,03,04,05,06,07,08,09,10,11,12,1.0,1.0,1.0*30
$GPRMC,085410.738,A,4757.819,N,00434.383,W,665.6,100.4,280524,000.0,W*69
$GPGGA,085411.738,4757.770,N,00434.117,W,1,12,1.0,0.0,M,0.0,M,,*7C
$GPGSA,A,3,01,02,03,04,05,06,07,08,09,10,11,12,1.0,1.0,1.0*30
$GPRMC,085411.738,A,4757.770,N,00434.117,W,665.6,100.4,280524,000.0,W*67
$GPGGA,085412.738,4757.721,N,00433.851,W,1,12,1.0,0.0,M,0.0,M,,*77
$GPGSA,A,3,01,02,03,04,05,06,07,08,09,10,11,12,1.0,1.0,1.0*30
$GPRMC,085412.738,A,4757.721,N,00433.851,W,665.6,100.4,280524,000.0,W*6C
$GPGGA,085413.738,4757.673,N,00433.585,W,1,12,1.0,0.0,M,0.0,M,,*74
$GPGSA,A,3,01,02,03,04,05,06,07,08,09,10,11,12,1.0,1.0,1.0*30
$GPRMC,085413.738,A,4757.673,N,00433.585,W,665.6,100.4,280524,000.0,W*6F
$GPGGA,085414.738,4757.624,N,00433.318,W,1,12,1.0,0.0,M,0.0,M,,*73
$GPGSA,A,3,01,02,03,04,05,06,07,08,09,10,11,12,1.0,1.0,1.0*30
$GPRMC,085414.738,A,4757.624,N,00433.318,W,665.6,100.4,280524,000.0,W*68
$GPGGA,085415.738,4757.575,N,00433.052,W,1,12,1.0,0.0,M,0.0,M,,*78
$GPGSA,A,3,01,02,03,04,05,06,07,08,09,10,11,12,1.0,1.0,1.0*30
$GPRMC,085415.738,A,4757.575,N,00433.052,W,665.6,100.4,280524,000.0,W*63
$GPGGA,085416.738,4757.527,N,00432.786,W,1,12,1.0,0.0,M,0.0,M,,*73
$GPGSA,A,3,01,02,03,04,05,06,07,08,09,10,11,12,1.0,1.0,1.0*30
$GPRMC,085416.738,A,4757.527,N,00432.786,W,665.6,100.4,280524,000.0,W*68
