$GPGGA,150753.812,4744.934,N,00320.998,W,1,12,1.0,0.0,M,0.0,M,,*76
$GPGSA,A,3,01,02,03,04,05,06,07,08,09,10,11,12,1.0,1.0,1.0*30
$GPRMC,150753.812,A,4744.934,N,00320.998,W,059.3,166.5,030624,000.0,W*6A
$GPGGA,150753.912,4744.933,N,00320.998,W,1,12,1.0,0.0,M,0.0,M,,*70
$GPGSA,A,3,01,02,03,04,05,06,07,08,09,10,11,12,1.0,1.0,1.0*30
$GPRMC,150753.912,A,4744.933,N,00320.998,W,059.3,166.5,030624,000.0,W*6C
$GPGGA,150754.012,4744.931,N,00320.998,W,1,12,1.0,0.0,M,0.0,M,,*7C
$GPGSA,A,3,01,02,03,04,05,06,07,08,09,10,11,12,1.0,1.0,1.0*30
$GPRMC,150754.012,A,4744.931,N,00320.998,W,059.3,166.5,030624,000.0,W*60
$GPGGA,150754.112,4744.929,N,00320.997,W,1,12,1.0,0.0,M,0.0,M,,*7B
$GPGSA,A,3,01,02,03,04,05,06,07,08,09,10,11,12,1.0,1.0,1.0*30
$GPRMC,150754.112,A,4744.929,N,00320.997,W,059.3,166.5,030624,000.0,W*67
$GPGGA,150754.212,4744.928,N,00320.997,W,1,12,1.0,0.0,M,0.0,M,,*79
$GPGSA,A,3,01,02,03,04,05,06,07,08,09,10,11,12,1.0,1.0,1.0*30
$GPRMC,150754.212,A,4744.928,N,00320.997,W,059.3,166.5,030624,000.0,W*65
$GPGGA,150754.312,4744.926,N,00320.996,W,1,12,1.0,0.0,M,0.0,M,,*77
$GPGSA,A,3,01,02,03,04,05,06,07,08,09,10,11,12,1.0,1.0,1.0*30
$GPRMC,150754.312,A,4744.926,N,00320.996,W,059.3,166.5,030624,000.0,W*6B
$GPGGA,150754.412,4744.925,N,00320.996,W,1,12,1.0,0.0,M,0.0,M,,*73
$GPGSA,A,3,01,02,03,04,05,06,07,08,09,10,11,12,1.0,1.0,1.0*30
$GPRMC,150754.412,A,4744.925,N,00320.996,W,059.3,166.5,030624,000.0,W*6F
$GPGGA,150754.512,4744.923,N,00320.996,W,1,12,1.0,0.0,M,0.0,M,,*74
$GPGSA,A,3,01,02,03,04,05,06,07,08,09,10,11,12,1.0,1.0,1.0*30
$GPRMC,150754.512,A,4744.923,N,00320.996,W,059.3,166.5,030624,000.0,W*68
$GPGGA,150754.612,4744.921,N,00320.995,W,1,12,1.0,0.0,M,0.0,M,,*76
$GPGSA,A,3,01,02,03,04,05,06,07,08,09,10,11,12,1.0,1.0,1.0*30
$GPRMC,150754.612,A,4744.921,N,00320.995,W,059.3,166.5,030624,000.0,W*6A
$GPGGA,150754.712,4744.920,N,00320.995,W,1,12,1.0,0.0,M,0.0,M,,*76
$GPGSA,A,3,01,02,03,04,05,06,07,08,09,10,11,12,1.0,1.0,1.0*30
$GPRMC,150754.712,A,4744.920,N,00320.995,W,059.3,166.5,030624,000.0,W*6A
$GPGGA,150754.812,4744.918,N,00320.994,W,1,12,1.0,0.0,M,0.0,M,,*73
$GPGSA,A,3,01,02,03,04,05,06,07,08,09,10,11,12,1.0,1.0,1.0*30
$GPRMC,150754.812,A,4744.918,N,00320.994,W,059.3,166.5,030624,000.0,W*6F
$GPGGA,150754.912,4744.916,N,00320.994,W,1,12,1.0,0.0,M,0.0,M,,*7C
$GPGSA,A,3,01,02,03,04,05,06,07,08,09,10,11,12,1.0,1.0,1.0*30
$GPRMC,150754.912,A,4744.916,N,00320.994,W,059.3,166.5,030624,000.0,W*60
$GPGGA,150755.012,4744.915,N,00320.994,W,1,12,1.0,0.0,M,0.0,M,,*77
$GPGSA,A,3,01,02,03,04,05,06,07,08,09,10,11,12,1.0,1.0,1.0*30
$GPRMC,150755.012,A,4744.915,N,00320.994,W,059.3,166.5,030624,000.0,W*6B
$GPGGA,150755.112,4744.913,N,00320.993,W,1,12,1.0,0.0,M,0.0,M,,*77
$GPGSA,A,3,01,02,03,04,05,06,07,08,09,10,11,12,1.0,1.0,1.0*30
$GPRMC,150755.112,A,4744.913,N,00320.993,W,059.3,166.5,030624,000.0,W*6B
$GPGGA,150755.212,4744.912,N,00320.993,W,1,12,1.0,0.0,M,0.0,M,,*75
$GPGSA,A,3,01,02,03,04,05,06,07,08,09,10,11,12,1.0,1.0,1.0*30
$GPRMC,150755.212,A,4744.912,N,00320.993,W,059.3,166.5,030624,000.0,W*69
$GPGGA,150755.312,4744.910,N,00320.992,W,1,12,1.0,0.0,M,0.0,M,,*77
$GPGSA,A,3,01,02,03,04,05,06,07,08,09,10,11,12,1.0,1.0,1.0*30
$GPRMC,150755.312,A,4744.910,N,00320.992,W,059.3,166.5,030624,000.0,W*6B
$GPGGA,150755.412,4744.908,N,00320.992,W,1,12,1.0,0.0,M,0.0,M,,*79
$GPGSA,A,3,01,02,03,04,05,06,07,08,09,10,11,12,1.0,1.0,1.0*30
$GPRMC,150755.412,A,4744.908,N,00320.992,W,059.3,166.5,030624,000.0,W*65
$GPGGA,150755.512,4744.907,N,00320.992,W,1,12,1.0,0.0,M,0.0,M,,*77
$GPGSA,A,3,01,02,03,04,05,06,07,08,09,10,11,12,1.0,1.0,1.0*30
$GPRMC,150755.512,A,4744.907,N,00320.992,W,059.3,166.5,030624,000.0,W*6B
$GPGGA,150755.612,4744.905,N,00320.991,W,1,12,1.0,0.0,M,0.0,M,,*75
$GPGSA,A,3,01,02,03,04,05,06,07,08,09,10,11,12,1.0,1.0,1.0*30
$GPRMC,150755.612,A,4744.905,N,00320.991,W,059.3,166.5,030624,000.0,W*69
$GPGGA,150755.712,4744.903,N,00320.991,W,1,12,1.0,0.0,M,0.0,M,,*72
$GPGSA,A,3,01,02,03,04,05,06,07,08,09,10,11,12,1.0,1.0,1.0*30
$GPRMC,150755.712,A,4744.903,N,00320.991,W,059.3,166.5,030624,000.0,W*6E
$GPGGA,150755.812,4744.902,N,00320.990,W,1,12,1.0,0.0,M,0.0,M,,*7D
$GPGSA,A,3,01,02,03,04,05,06,07,08,09,10,11,12,1.0,1.0,1.0*30
$GPRMC,150755.812,A,4744.902,N,00320.990,W,059.3,166.5,030624,000.0,W*61
$GPGGA,150755.912,4744.900,N,00320.990,W,1,12,1.0,0.0,M,0.0,M,,*7E
$GPGSA,A,3,01,02,03,04,05,06,07,08,09,10,11,12,1.0,1.0,1.0*30
$GPRMC,150755.912,A,4744.900,N,00320.990,W,059.3,166.5,030624,000.0,W*62
$GPGGA,150756.012,4744.899,N,00320.990,W,1,12,1.0,0.0,M,0.0,M,,*75
$GPGSA,A,3,01,02,03,04,05,06,07,08,09,10,11,12,1.0,1.0,1.0*30
$GPRMC,150756.012,A,4744.899,N,00320.990,W,059.3,166.5,030624,000.0,W*69
$GPGGA,150756.112,4744.897,N,00320.989,W,1,12,1.0,0.0,M,0.0,M,,*72
$GPGSA,A,3,01,02,03,04,05,06,07,08,09,10,11,12,1.0,1.0,1.0*30
$GPRMC,150756.112,A,4744.897,N,00320.989,W,059.3,166.5,030624,000.0,W*6E
$GPGGA,150756.212,4744.895,N,00320.989,W,1,12,1.0,0.0,M,0.0,M,,*73
$GPGSA,A,3,01,02,03,04,05,06,07,08,09,10,11,12,1.0,1.0,1.0*30
$GPRMC,150756.212,A,4744.895,N,00320.989,W,059.3,166.5,030624,000.0,W*6F
$GPGGA,150756.312,4744.894,N,00320.989,W,1,12,1.0,0.0,M,0.0,M,,*73
$GPGSA,A,3,01,02,03,04,05,06,07,08,09,10,11,12,1.0,1.0,1.0*30
$GPRMC,150756.312,A,4744.894,N,00320.989,W,059.3,166.5,030624,000.0,W*6F
$GPGGA,150756.412,4744.892,N,00320.988,W,1,12,1.0,0.0,M,0.0,M,,*73
$GPGSA,A,3,01,02,03,04,05,06,07,08,09,10,11,12,1.0,1.0,1.0*30
$GPRMC,150756.412,A,4744.892,N,00320.988,W,059.3,166.5,030624,000.0,W*6F
$GPGGA,150756.512,4744.890,N,00320.988,W,1,12,1.0,0.0,M,0.0,M,,*70
$GPGSA,A,3,01,02,03,04,05,06,07,08,09,10,11,12,1.0,1.0,1.0*30
$GPRMC,150756.512,A,4744.890,N,00320.988,W,059.3,166.5,030624,000.0,W*6C
$GPGGA,150756.612,4744.889,N,00320.987,W,1,12,1.0,0.0,M,0.0,M,,*74
$GPGSA,A,3,01,02,03,04,05,06,07,08,09,10,11,12,1.0,1.0,1.0*30
$GPRMC,150756.612,A,4744.889,N,00320.987,W,059.3,166.5,030624,000.0,W*68
$GPGGA,150756.712,4744.887,N,00320.987,W,1,12,1.0,0.0,M,0.0,M,,*7B
$GPGSA,A,3,01,02,03,04,05,06,07,08,09,10,11,12,1.0,1.0,1.0*30
$GPRMC,150756.712,A,4744.887,N,00320.987,W,059.3,166.5,030624,000.0,W*67
$GPGGA,150756.812,4744.886,N,00320.987,W,1,12,1.0,0.0,M,0.0,M,,*75
$GPGSA,A,3,01,02,03,04,05,06,07,08,09,10,11,12,1.0,1.0,1.0*30
$GPRMC,150756.812,A,4744.886,N,00320.987,W,059.3,166.5,030624,000.0,W*69
$GPGGA,150756.912,4744.884,N,00320.986,W,1,12,1.0,0.0,M,0.0,M,,*77
$GPGSA,A,3,01,02,03,04,05,06,07,08,09,10,11,12,1.0,1.0,1.0*30
$GPRMC,150756.912,A,4744.884,N,00320.986,W,059.3,166.5,030624,000.0,W*6B
$GPGGA,150757.012,4744.882,N,00320.986,W,1,12,1.0,0.0,M,0.0,M,,*79
$GPGSA,A,3,01,02,03,04,05,06,07,08,09,10,11,12,1.0,1.0,1.0*30
$GPRMC,150757.012,A,4744.882,N,00320.986,W,059.3,166.5,030624,000.0,W*65
$GPGGA,150757.112,4744.881,N,00320.985,W,1,12,1.0,0.0,M,0.0,M,,*78
$GPGSA,A,3,01,02,03,04,05,06,07,08,09,10,11,12,1.0,1.0,1.0*30
$GPRMC,150757.112,A,4744.881,N,00320.985,W,059.3,166.5,030624,000.0,W*64
$GPGGA,150757.212,4744.879,N,00320.985,W,1,12,1.0,0.0,M,0.0,M,,*7C
$GPGSA,A,3,01,02,03,04,05,06,07,08,09,10,11,12,1.0,1.0,1.0*30
$GPRMC,150757.212,A,4744.879,N,00320.985,W,059.3,166.5,030624,000.0,W*60
$GPGGA,150757.312,4744.877,N,00320.985,W,1,12,1.0,0.0,M,0.0,M,,*73
$GPGSA,A,3,01,02,03,04,05,06,07,08,09,10,11,12,1.0,1.0,1.0*30
$GPRMC,150757.312,A,4744.877,N,00320.985,W,059.3,166.5,030624,000.0,W*6F
$GPGGA,150757.412,4744.876,N,00320.984,W,1,12,1.0,0.0,M,0.0,M,,*74
$GPGSA,A,3,01,02,03,04,05,06,07,08,09,10,11,12,1.0,1.0,1.0*30
$GPRMC,150757.412,A,4744.876,N,00320.984,W,059.3,166.5,030624,000.0,W*68
$GPGGA,150757.512,4744.874,N,00320.984,W,1,12,1.0,0.0,M,0.0,M,,*77
$GPGSA,A,3,01,02,03,04,05,06,07,08,09,10,11,12,1.0,1.0,1.0*30
$GPRMC,150757.512,A,4744.874,N,00320.984,W,059.3,166.5,030624,000.0,W*6B
$GPGGA,150757.612,4744.873,N,00320.983,W,1,12,1.0,0.0,M,0.0,M,,*74
$GPGSA,A,3,01,02,03,04,05,06,07,08,09,10,11,12,1.0,1.0,1.0*30
$GPRMC,150757.612,A,4744.873,N,00320.983,W,059.3,166.5,030624,000.0,W*68
$GPGGA,150757.712,4744.871,N,00320.983,W,1,12,1.0,0.0,M,0.0,M,,*77
$GPGSA,A,3,01,02,03,04,05,06,07,08,09,10,11,12,1.0,1.0,1.0*30
$GPRMC,150757.712,A,4744.871,N,00320.983,W,059.3,166.5,030624,000.0,W*6B
$GPGGA,150757.812,4744.869,N,00320.983,W,1,12,1.0,0.0,M,0.0,M,,*71
$GPGSA,A,3,01,02,03,04,05,06,07,08,09,10,11,12,1.0,1.0,1.0*30
$GPRMC,150757.812,A,4744.869,N,00320.983,W,059.3,166.5,030624,000.0,W*6D
$GPGGA,150757.912,4744.868,N,00320.982,W,1,12,1.0,0.0,M,0.0,M,,*70
$GPGSA,A,3,01,02,03,04,05,06,07,08,09,10,11,12,1.0,1.0,1.0*30
$GPRMC,150757.912,A,4744.868,N,00320.982,W,059.3,166.5,030624,000.0,W*6C
$GPGGA,150758.012,4744.866,N,00320.982,W,1,12,1.0,0.0,M,0.0,M,,*78
$GPGSA,A,3,01,02,03,04,05,06,07,08,09,10,11,12,1.0,1.0,1.0*30
$GPRMC,150758.012,A,4744.866,N,00320.982,W,059.3,166.5,030624,000.0,W*64
$GPGGA,150758.112,4744.864,N,00320.982,W,1,12,1.0,0.0,M,0.0,M,,*7B
$GPGSA,A,3,01,02,03,04,05,06,07,08,09,10,11,12,1.0,1.0,1.0*30
$GPRMC,150758.112,A,4744.864,N,00320.982,W,059.3,166.5,030624,000.0,W*67
$GPGGA,150758.212,4744.863,N,00320.981,W,1,12,1.0,0.0,M,0.0,M,,*7C
$GPGSA,A,3,01,02,03,04,05,06,07,08,09,10,11,12,1.0,1.0,1.0*30
$GPRMC,150758.212,A,4744.863,N,00320.981,W,059.3,166.5,030624,000.0,W*60
$GPGGA,150758.312,4744.861,N,00320.981,W,1,12,1.0,0.0,M,0.0,M,,*7F
$GPGSA,A,3,01,02,03,04,05,06,07,08,09,10,11,12,1.0,1.0,1.0*30
$GPRMC,150758.312,A,4744.861,N,00320.981,W,059.3,166.5,030624,000.0,W*63
$GPGGA,150758.412,4744.860,N,00320.980,W,1,12,1.0,0.0,M,0.0,M,,*78
$GPGSA,A,3,01,02,03,04,05,06,07,08,09,10,11,12,1.0,1.0,1.0*30
$GPRMC,150758.412,A,4744.860,N,00320.980,W,059.3,166.5,030624,000.0,W*64
$GPGGA,150758.512,4744.858,N,00320.980,W,1,12,1.0,0.0,M,0.0,M,,*72
$GPGSA,A,3,01,02,03,04,05,06,07,08,09,10,11,12,1.0,1.0,1.0*30
$GPRMC,150758.512,A,4744.858,N,00320.980,W,059.3,166.5,030624,000.0,W*6E
$GPGGA,150758.612,4744.856,N,00320.980,W,1,12,1.0,0.0,M,0.0,M,,*7F
$GPGSA,A,3,01,02,03,04,05,06,07,08,09,10,11,12,1.0,1.0,1.0*30
$GPRMC,150758.612,A,4744.856,N,00320.980,W,059.3,166.5,030624,000.0,W*63
$GPGGA,150758.712,4744.855,N,00320.979,W,1,12,1.0,0.0,M,0.0,M,,*7B
$GPGSA,A,3,01,02,03,04,05,06,07,08,09,10,11,12,1.0,1.0,1.0*30
$GPRMC,150758.712,A,4744.855,N,00320.979,W,059.3,166.5,030624,000.0,W*67
$GPGGA,150758.812,4744.853,N,00320.979,W,1,12,1.0,0.0,M,0.0,M,,*72
$GPGSA,A,3,01,02,03,04,05,06,07,08,09,10,11,12,1.0,1.0,1.0*30
$GPRMC,150758.812,A,4744.853,N,00320.979,W,059.3,166.5,030624,000.0,W*6E
$GPGGA,150758.912,4744.851,N,00320.978,W,1,12,1.0,0.0,M,0.0,M,,*70
$GPGSA,A,3,01,02,03,04,05,06,07,08,09,10,11,12,1.0,1.0,1.0*30
$GPRMC,150758.912,A,4744.851,N,00320.978,W,059.3,166.5,030624,000.0,W*6C
$GPGGA,150759.012,4744.850,N,00320.978,W,1,12,1.0,0.0,M,0.0,M,,*79
$GPGSA,A,3,01,02,03,04,05,06,07,08,09,10,11,12,1.0,1.0,1.0*30
$GPRMC,150759.012,A,4744.850,N,00320.978,W,059.3,166.5,030624,000.0,W*65
$GPGGA,150759.112,4744.848,N,00320.978,W,1,12,1.0,0.0,M,0.0,M,,*71
$GPGSA,A,3,01,02,03,04,05,06,07,08,09,10,11,12,1.0,1.0,1.0*30
$GPRMC,150759.112,A,4744.848,N,00320.978,W,059.3,166.5,030624,000.0,W*6D
$GPGGA,150759.212,4744.847,N,00320.977,W,1,12,1.0,0.0,M,0.0,M,,*72
$GPGSA,A,3,01,02,03,04,05,06,07,08,09,10,11,12,1.0,1.0,1.0*30
$GPRMC,150759.212,A,4744.847,N,00320.977,W,059.3,166.5,030624,000.0,W*6E
$GPGGA,150759.312,4744.845,N,00320.977,W,1,12,1.0,0.0,M,0.0,M,,*71
$GPGSA,A,3,01,02,03,04,05,06,07,08,09,10,11,12,1.0,1.0,1.0*30
$GPRMC,150759.312,A,4744.845,N,00320.977,W,059.3,166.5,030624,000.0,W*6D
$GPGGA,150759.412,4744.843,N,00320.976,W,1,12,1.0,0.0,M,0.0,M,,*71
$GPGSA,A,3,01,02,03,04,05,06,07,08,09,10,11,12,1.0,1.0,1.0*30
$GPRMC,150759.412,A,4744.843,N,00320.976,W,059.3,166.5,030624,000.0,W*6D
$GPGGA,150759.512,4744.842,N,00320.976,W,1,12,1.0,0.0,M,0.0,M,,*71
$GPGSA,A,3,01,02,03,04,05,06,07,08,09,10,11,12,1.0,1.0,1.0*30
$GPRMC,150759.512,A,4744.842,N,00320.976,W,059.3,166.5,030624,000.0,W*6D
$GPGGA,150759.612,4744.840,N,00320.976,W,1,12,1.0,0.0,M,0.0,M,,*70
$GPGSA,A,3,01,02,03,04,05,06,07,08,09,10,11,12,1.0,1.0,1.0*30
$GPRMC,150759.612,A,4744.840,N,00320.976,W,059.3,166.5,030624,000.0,W*6C
$GPGGA,150759.712,4744.838,N,00320.975,W,1,12,1.0,0.0,M,0.0,M,,*7D
$GPGSA,A,3,01,02,03,04,05,06,07,08,09,10,11,12,1.0,1.0,1.0*30
$GPRMC,150759.712,A,4744.838,N,00320.975,W,059.3,166.5,030624,000.0,W*61
$GPGGA,150759.812,4744.837,N,00320.975,W,1,12,1.0,0.0,M,0.0,M,,*7D
$GPGSA,A,3,01,02,03,04,05,06,07,08,09,10,11,12,1.0,1.0,1.0*30
$GPRMC,150759.812,A,4744.837,N,00320.975,W,059.3,166.5,030624,000.0,W*61
$GPGGA,150759.912,4744.835,N,00320.974,W,1,12,1.0,0.0,M,0.0,M,,*7F
$GPGSA,A,3,01,02,03,04,05,06,07,08,09,10,11,12,1.0,1.0,1.0*30
$GPRMC,150759.912,A,4744.835,N,00320.974,W,059.3,166.5,030624,000.0,W*63
$GPGGA,150800.012,4744.834,N,00320.974,W,1,12,1.0,0.0,M,0.0,M,,*74
$GPGSA,A,3,01,02,03,04,05,06,07,08,09,10,11,12,1.0,1.0,1.0*30
$GPRMC,150800.012,A,4744.834,N,00320.974,W,059.3,166.5,030624,000.0,W*68
$GPGGA,150800.112,4744.832,N,00320.974,W,1,12,1.0,0.0,M,0.0,M,,*73
$GPGSA,A,3,01,02,03,04,05,06,07,08,09,10,11,12,1.0,1.0,1.0*30
$GPRMC,150800.112,A,4744.832,N,00320.974,W,059.3,166.5,030624,000.0,W*6F
$GPGGA,150800.212,4744.830,N,00320.973,W,1,12,1.0,0.0,M,0.0,M,,*75
$GPGSA,A,3,01,02,03,04,05,06,07,08,09,10,11,12,1.0,1.0,1.0*30
$GPRMC,150800.212,A,4744.830,N,00320.973,W,059.3,166.5,030624,000.0,W*69
$GPGGA,150800.312,4744.829,N,00320.973,W,1,12,1.0,0.0,M,0.0,M,,*7C
$GPGSA,A,3,01,02,03,04,05,06,07,08,09,10,11,12,1.0,1.0,1.0*30
$GPRMC,150800.312,A,4744.829,N,00320.973,W,059.3,166.5,030624,000.0,W*60
$GPGGA,150800.412,4744.827,N,00320.973,W,1,12,1.0,0.0,M,0.0,M,,*75
$GPGSA,A,3,01,02,03,04,05,06,07,08,09,10,11,12,1.0,1.0,1.0*30
$GPRMC,150800.412,A,4744.827,N,00320.973,W,059.3,166.5,030624,000.0,W*69
$GPGGA,150800.512,4744.825,N,00320.972,W,1,12,1.0,0.0,M,0.0,M,,*77
$GPGSA,A,3,01,02,03,04,05,06,07,08,09,10,11,12,1.0,1.0,1.0*30
$GPRMC,150800.512,A,4744.825,N,00320.972,W,059.3,166.5,030624,000.0,W*6B
$GPGGA,150800.612,4744.824,N,00320.972,W,1,12,1.0,0.0,M,0.0,M,,*75
$GPGSA,A,3,01,02,03,04,05,06,07,08,09,10,11,12,1.0,1.0,1.0*30
$GPRMC,150800.612,A,4744.824,N,00320.972,W,059.3,166.5,030624,000.0,W*69
$GPGGA,150800.712,4744.822,N,00320.971,W,1,12,1.0,0.0,M,0.0,M,,*71
$GPGSA,A,3,01,02,03,04,05,06,07,08,09,10,11,12,1.0,1.0,1.0*30
$GPRMC,150800.712,A,4744.822,N,00320.971,W,059.3,166.5,030624,000.0,W*6D
$GPGGA,150800.812,4744.821,N,00320.971,W,1,12,1.0,0.0,M,0.0,M,,*7D
$GPGSA,A,3,01,02,03,04,05,06,07,08,09,10,11,12,1.0,1.0,1.0*30
$GPRMC,150800.812,A,4744.821,N,00320.971,W,059.3,166.5,030624,000.0,W*61
$GPGGA,150800.912,4744.819,N,00320.971,W,1,12,1.0,0.0,M,0.0,M,,*77
$GPGSA,A,3,01,02,03,04,05,06,07,08,09,10,11,12,1.0,1.0,1.0*30
$GPRMC,150800.912,A,4744.819,N,00320.971,W,059.3,166.5,030624,000.0,W*6B
$GPGGA,150801.012,4744.817,N,00320.970,W,1,12,1.0,0.0,M,0.0,M,,*70
$GPGSA,A,3,01,02,03,04,05,06,07,08,09,10,11,12,1.0,1.0,1.0*30
$GPRMC,150801.012,A,4744.817,N,00320.970,W,059.3,166.5,030624,000.0,W*6C
$GPGGA,150801.112,4744.816,N,00320.970,W,1,12,1.0,0.0,M,0.0,M,,*70
$GPGSA,A,3,01,02,03,04,05,06,07,08,09,10,11,12,1.0,1.0,1.0*30
$GPRMC,150801.112,A,4744.816,N,00320.970,W,059.3,166.5,030624,000.0,W*6C
$GPGGA,150801.212,4744.814,N,00320.969,W,1,12,1.0,0.0,M,0.0,M,,*79
$GPGSA,A,3,01,02,03,04,05,06,07,08,09,10,11,12,1.0,1.0,1.0*30
$GPRMC,150801.212,A,4744.814,N,00320.969,W,059.3,166.5,030624,000.0,W*65
$GPGGA,150801.312,4744.812,N,00320.969,W,1,12,1.0,0.0,M,0.0,M,,*7E
$GPGSA,A,3,01,02,03,04,05,06,07,08,09,10,11,12,1.0,1.0,1.0*30
$GPRMC,150801.312,A,4744.812,N,00320.969,W,059.3,166.5,030624,000.0,W*62
$GPGGA,150801.412,4744.811,N,00320.969,W,1,12,1.0,0.0,M,0.0,M,,*7A
$GPGSA,A,3,01,02,03,04,05,06,07,08,09,10,11,12,1.0,1.0,1.0*30
$GPRMC,150801.412,A,4744.811,N,00320.969,W,059.3,166.5,030624,000.0,W*66
$GPGGA,150801.512,4744.809,N,00320.968,W,1,12,1.0,0.0,M,0.0,M,,*73
$GPGSA,A,3,01,02,03,04,05,06,07,08,09,10,11,12,1.0,1.0,1.0*30
$GPRMC,150801.512,A,4744.809,N,00320.968,W,059.3,166.5,030624,000.0,W*6F
$GPGGA,150801.612,4744.808,N,00320.968,W,1,12,1.0,0.0,M,0.0,M,,*71
$GPGSA,A,3,01,02,03,04,05,06,07,08,09,10,11,12,1.0,1.0,1.0*30
$GPRMC,150801.612,A,4744.808,N,00320.968,W,059.3,166.5,030624,000.0,W*6D
$GPGGA,150801.712,4744.806,N,00320.967,W,1,12,1.0,0.0,M,0.0,M,,*71
$GPGSA,A,3,01,02,03,04,05,06,07,08,09,10,11,12,1.0,1.0,1.0*30
$GPRMC,150801.712,A,4744.806,N,00320.967,W,059.3,166.5,030624,000.0,W*6D
$GPGGA,150801.812,4744.804,N,00320.967,W,1,12,1.0,0.0,M,0.0,M,,*7C
$GPGSA,A,3,01,02,03,04,05,06,07,08,09,10,11,12,1.0,1.0,1.0*30
$GPRMC,150801.812,A,4744.804,N,00320.967,W,059.3,166.5,030624,000.0,W*60
$GPGGA,150801.912,4744.803,N,00320.967,W,1,12,1.0,0.0,M,0.0,M,,*7A
$GPGSA,A,3,01,02,03,04,05,06,07,08,09,10,11,12,1.0,1.0,1.0*30
$GPRMC,150801.912,A,4744.803,N,00320.967,W,059.3,166.5,030624,000.0,W*66
$GPGGA,150802.012,4744.801,N,00320.966,W,1,12,1.0,0.0,M,0.0,M,,*73
$GPGSA,A,3,01,02,03,04,05,06,07,08,09,10,11,12,1.0,1.0,1.0*30
$GPRMC,150802.012,A,4744.801,N,00320.966,W,059.3,166.5,030624,000.0,W*6F
$GPGGA,150802.112,4744.799,N,00320.966,W,1,12,1.0,0.0,M,0.0,M,,*7C
$GPGSA,A,3,01,02,03,04,05,06,07,08,09,10,11,12,1.0,1.0,1.0*30
$GPRMC,150802.112,A,4744.799,N,00320.966,W,059.3,166.5,030624,000.0,W*60
$GPGGA,150802.212,4744.798,N,00320.965,W,1,12,1.0,0.0,M,0.0,M,,*7D
$GPGSA,A,3,01,02,03,04,05,06,07,08,09,10,11,12,1.0,1.0,1.0*30
$GPRMC,150802.212,A,4744.798,N,00320.965,W,059.3,166.5,030624,000.0,W*61
$GPGGA,150802.312,4744.796,N,00320.965,W,1,12,1.0,0.0,M,0.0,M,,*72
$GPGSA,A,3,01,02,03,04,05,06,07,08,09,10,11,12,1.0,1.0,1.0*30
$GPRMC,150802.312,A,4744.796,N,00320.965,W,059.3,166.5,030624,000.0,W*6E
$GPGGA,150802.412,4744.795,N,00320.965,W,1,12,1.0,0.0,M,0.0,M,,*76
$GPGSA,A,3,01,02,03,04,05,06,07,08,09,10,11,12,1.0,1.0,1.0*30
$GPRMC,150802.412,A,4744.795,N,00320.965,W,059.3,166.5,030624,000.0,W*6A
$GPGGA,150802.512,4744.793,N,00320.964,W,1,12,1.0,0.0,M,0.0,M,,*70
$GPGSA,A,3,01,02,03,04,05,06,07,08,09,10,11,12,1.0,1.0,1.0*30
$GPRMC,150802.512,A,4744.793,N,00320.964,W,059.3,166.5,030624,000.0,W*6C
$GPGGA,150802.612,4744.791,N,00320.964,W,1,12,1.0,0.0,M,0.0,M,,*71
$GPGSA,A,3,01,02,03,04,05,06,07,08,09,10,11,12,1.0,1.0,1.0*30
$GPRMC,150802.612,A,4744.791,N,00320.964,W,059.3,166.5,030624,000.0,W*6D
$GPGGA,150802.712,4744.790,N,00320.964,W,1,12,1.0,0.0,M,0.0,M,,*71
$GPGSA,A,3,01,02,03,04,05,06,07,08,09,10,11,12,1.0,1.0,1.0*30
$GPRMC,150802.712,A,4744.790,N,00320.964,W,059.3,166.5,030624,000.0,W*6D
$GPGGA,150802.812,4744.788,N,00320.963,W,1,12,1.0,0.0,M,0.0,M,,*70
$GPGSA,A,3,01,02,03,04,05,06,07,08,09,10,11,12,1.0,1.0,1.0*30
$GPRMC,150802.812,A,4744.788,N,00320.963,W,059.3,166.5,030624,000.0,W*6C
$GPGGA,150802.912,4744.786,N,00320.963,W,1,12,1.0,0.0,M,0.0,M,,*7F
$GPGSA,A,3,01,02,03,04,05,06,07,08,09,10,11,12,1.0,1.0,1.0*30
$GPRMC,150802.912,A,4744.786,N,00320.963,W,059.3,166.5,030624,000.0,W*63
$GPGGA,150803.012,4744.785,N,00320.962,W,1,12,1.0,0.0,M,0.0,M,,*75
$GPGSA,A,3,01,02,03,04,05,06,07,08,09,10,11,12,1.0,1.0,1.0*30
$GPRMC,150803.012,A,4744.785,N,00320.962,W,059.3,166.5,030624,000.0,W*69
$GPGGA,150803.112,4744.783,N,00320.962,W,1,12,1.0,0.0,M,0.0,M,,*72
$GPGSA,A,3,01,02,03,04,05,06,07,08,09,10,11,12,1.0,1.0,1.0*30
$GPRMC,150803.112,A,4744.783,N,00320.962,W,059.3,166.5,030624,000.0,W*6E
$GPGGA,150803.212,4744.782,N,00320.962,W,1,12,1.0,0.0,M,0.0,M,,*70
$GPGSA,A,3,01,02,03,04,05,06,07,08,09,10,11,12,1.0,1.0,1.0*30
$GPRMC,150803.212,A,4744.782,N,00320.962,W,059.3,166.5,030624,000.0,W*6C
$GPGGA,150803.312,4744.780,N,00320.961,W,1,12,1.0,0.0,M,0.0,M,,*70
$GPGSA,A,3,01,02,03,04,05,06,07,08,09,10,11,12,1.0,1.0,1.0*30
$GPRMC,150803.312,A,4744.780,N,00320.961,W,059.3,166.5,030624,000.0,W*6C
$GPGGA,150803.412,4744.778,N,00320.961,W,1,12,1.0,0.0,M,0.0,M,,*70
$GPGSA,A,3,01,02,03,04,05,06,07,08,09,10,11,12,1.0,1.0,1.0*30
$GPRMC,150803.412,A,4744.778,N,00320.961,W,059.3,166.5,030624,000.0,W*6C
$GPGGA,150803.512,4744.777,N,00320.960,W,1,12,1.0,0.0,M,0.0,M,,*7F
$GPGSA,A,3,01,02,03,04,05,06,07,08,09,10,11,12,1.0,1.0,1.0*30
$GPRMC,150803.512,A,4744.777,N,00320.960,W,059.3,166.5,030624,000.0,W*63
$GPGGA,150803.612,4744.775,N,00320.960,W,1,12,1.0,0.0,M,0.0,M,,*7E
$GPGSA,A,3,01,02,03,04,05,06,07,08,09,10,11,12,1.0,1.0,1.0*30
$GPRMC,150803.612,A,4744.775,N,00320.960,W,059.3,166.5,030624,000.0,W*62
$GPGGA,150803.712,4744.773,N,00320.960,W,1,12,1.0,0.0,M,0.0,M,,*79
$GPGSA,A,3,01,02,03,04,05,06,07,08,09,10,11,12,1.0,1.0,1.0*30
$GPRMC,150803.712,A,4744.773,N,00320.960,W,059.3,166.5,030624,000.0,W*65
$GPGGA,150803.812,4744.772,N,00320.959,W,1,12,1.0,0.0,M,0.0,M,,*7D
$GPGSA,A,3,01,02,03,04,05,06,07,08,09,10,11,12,1.0,1.0,1.0*30
$GPRMC,150803.812,A,4744.772,N,00320.959,W,059.3,166.5,030624,000.0,W*61
$GPGGA,150803.912,4744.770,N,00320.959,W,1,12,1.0,0.0,M,0.0,M,,*7E
$GPGSA,A,3,01,02,03,04,05,06,07,08,09,10,11,12,1.0,1.0,1.0*30
$GPRMC,150803.912,A,4744.770,N,00320.959,W,059.3,166.5,030624,000.0,W*62
$GPGGA,150804.012,4744.769,N,00320.958,W,1,12,1.0,0.0,M,0.0,M,,*79
$GPGSA,A,3,01,02,03,04,05,06,07,08,09,10,11,12,1.0,1.0,1.0*30
$GPRMC,150804.012,A,4744.769,N,00320.958,W,059.3,166.5,030624,000.0,W*65
$GPGGA,150804.112,4744.767,N,00320.958,W,1,12,1.0,0.0,M,0.0,M,,*76
$GPGSA,A,3,01,02,03,04,05,06,07,08,09,10,11,12,1.0,1.0,1.0*30
$GPRMC,150804.112,A,4744.767,N,00320.958,W,059.3,166.5,030624,000.0,W*6A
$GPGGA,150804.212,4744.765,N,00320.958,W,1,12,1.0,0.0,M,0.0,M,,*77
$GPGSA,A,3,01,02,03,04,05,06,07,08,09,10,11,12,1.0,1.0,1.0*30
$GPRMC,150804.212,A,4744.765,N,00320.958,W,059.3,166.5,030624,000.0,W*6B
$GPGGA,150804.312,4744.764,N,00320.957,W,1,12,1.0,0.0,M,0.0,M,,*78
$GPGSA,A,3,01,02,03,04,05,06,07,08,09,10,11,12,1.0,1.0,1.0*30
$GPRMC,150804.312,A,4744.764,N,00320.957,W,059.3,166.5,030624,000.0,W*64
$GPGGA,150804.412,4744.762,N,00320.957,W,1,12,1.0,0.0,M,0.0,M,,*79
$GPGSA,A,3,01,02,03,04,05,06,07,08,09,10,11,12,1.0,1.0,1.0*30
$GPRMC,150804.412,A,4744.762,N,00320.957,W,059.3,166.5,030624,000.0,W*65
$GPGGA,150804.512,4744.760,N,00320.957,W,1,12,1.0,0.0,M,0.0,M,,*7A
$GPGSA,A,3,01,02,03,04,05,06,07,08,09,10,11,12,1.0,1.0,1.0*30
$GPRMC,150804.512,A,4744.760,N,00320.957,W,059.3,166.5,030624,000.0,W*66
$GPGGA,150804.612,4744.759,N,00320.956,W,1,12,1.0,0.0,M,0.0,M,,*72
$GPGSA,A,3,01,02,03,04,05,06,07,08,09,10,11,12,1.0,1.0,1.0*30
$GPRMC,150804.612,A,4744.759,N,00320.956,W,059.3,166.5,030624,000.0,W*6E
$GPGGA,150804.712,4744.757,N,00320.956,W,1,12,1.0,0.0,M,0.0,M,,*7D
$GPGSA,A,3,01,02,03,04,05,06,07,08,09,10,11,12,1.0,1.0,1.0*30
$GPRMC,150804.712,A,4744.757,N,00320.956,W,059.3,166.5,030624,000.0,W*61
$GPGGA,150804.812,4744.756,N,00320.955,W,1,12,1.0,0.0,M,0.0,M,,*70
$GPGSA,A,3,01,02,03,04,05,06,07,08,09,10,11,12,1.0,1.0,1.0*30
$GPRMC,150804.812,A,4744.756,N,00320.955,W,059.3,166.5,030624,000.0,W*6C
$GPGGA,150804.912,4744.754,N,00320.955,W,1,12,1.0,0.0,M,0.0,M,,*73
$GPGSA,A,3,01,02,03,04,05,06,07,08,09,10,11,12,1.0,1.0,1.0*30
$GPRMC,150804.912,A,4744.754,N,00320.955,W,059.3,166.5,030624,000.0,W*6F
$GPGGA,150805.012,4744.752,N,00320.955,W,1,12,1.0,0.0,M,0.0,M,,*7D
$GPGSA,A,3,01,02,03,04,05,06,07,08,09,10,11,12,1.0,1.0,1.0*30
$GPRMC,150805.012,A,4744.752,N,00320.955,W,059.3,166.5,030624,000.0,W*61
$GPGGA,150805.112,4744.751,N,00320.954,W,1,12,1.0,0.0,M,0.0,M,,*7E
$GPGSA,A,3,01,02,03,04,05,06,07,08,09,10,11,12,1.0,1.0,1.0*30
$GPRMC,150805.112,A,4744.751,N,00320.954,W,059.3,166.5,030624,000.0,W*62
$GPGGA,150805.212,4744.749,N,00320.954,W,1,12,1.0,0.0,M,0.0,M,,*74
$GPGSA,A,3,01,02,03,04,05,06,07,08,09,10,11,12,1.0,1.0,1.0*30
$GPRMC,150805.212,A,4744.749,N,00320.954,W,059.3,166.5,030624,000.0,W*68
$GPGGA,150805.312,4744.747,N,00320.953,W,1,12,1.0,0.0,M,0.0,M,,*7C
$GPGSA,A,3,01,02,03,04,05,06,07,08,09,10,11,12,1.0,1.0,1.0*30
$GPRMC,150805.312,A,4744.747,N,00320.953,W,059.3,166.5,030624,000.0,W*60
$GPGGA,150805.412,4744.746,N,00320.953,W,1,12,1.0,0.0,M,0.0,M,,*7A
$GPGSA,A,3,01,02,03,04,05,06,07,08,09,10,11,12,1.0,1.0,1.0*30
$GPRMC,150805.412,A,4744.746,N,00320.953,W,059.3,166.5,030624,000.0,W*66
$GPGGA,150805.512,4744.744,N,00320.953,W,1,12,1.0,0.0,M,0.0,M,,*79
$GPGSA,A,3,01,02,03,04,05,06,07,08,09,10,11,12,1.0,1.0,1.0*30
$GPRMC,150805.512,A,4744.744,N,00320.953,W,059.3,166.5,030624,000.0,W*65
$GPGGA,150805.612,4744.743,N,00320.952,W,1,12,1.0,0.0,M,0.0,M,,*7C
$GPGSA,A,3,01,02,03,04,05,06,07,08,09,10,11,12,1.0,1.0,1.0*30
$GPRMC,150805.612,A,4744.743,N,00320.952,W,059.3,166.5,030624,000.0,W*60
$GPGGA,150805.712,4744.741,N,00320.952,W,1,12,1.0,0.0,M,0.0,M,,*7F
$GPGSA,A,3,01,02,03,04,05,06,07,08,09,10,11,12,1.0,1.0,1.0*30
$GPRMC,150805.712,A,4744.741,N,00320.952,W,059.3,166.5,030624,000.0,W*63
$GPGGA,150805.812,4744.739,N,00320.951,W,1,12,1.0,0.0,M,0.0,M,,*7C
$GPGSA,A,3,01,02,03,04,05,06,07,08,09,10,11,12,1.0,1.0,1.0*30
$GPRMC,150805.812,A,4744.739,N,00320.951,W,059.3,166.5,030624,000.0,W*60
$GPGGA,150805.912,4744.738,N,00320.951,W,1,12,1.0,0.0,M,0.0,M,,*7C
$GPGSA,A,3,01,02,03,04,05,06,07,08,09,10,11,12,1.0,1.0,1.0*30
$GPRMC,150805.912,A,4744.738,N,00320.951,W,059.3,166.5,030624,000.0,W*60
$GPGGA,150806.012,4744.736,N,00320.951,W,1,12,1.0,0.0,M,0.0,M,,*78
$GPGSA,A,3,01,02,03,04,05,06,07,08,09,10,11,12,1.0,1.0,1.0*30
$GPRMC,150806.012,A,4744.736,N,00320.951,W,059.3,166.5,030624,000.0,W*64
$GPGGA,150806.112,4744.734,N,00320.950,W,1,12,1.0,0.0,M,0.0,M,,*7A
$GPGSA,A,3,01,02,03,04,05,06,07,08,09,10,11,12,1.0,1.0,1.0*30
$GPRMC,150806.112,A,4744.734,N,00320.950,W,059.3,166.5,030624,000.0,W*66
$GPGGA,150806.212,4744.733,N,00320.950,W,1,12,1.0,0.0,M,0.0,M,,*7E
$GPGSA,A,3,01,02,03,04,05,06,07,08,09,10,11,12,1.0,1.0,1.0*30
$GPRMC,150806.212,A,4744.733,N,00320.950,W,059.3,166.5,030624,000.0,W*62
$GPGGA,150806.312,4744.731,N,00320.949,W,1,12,1.0,0.0,M,0.0,M,,*75
$GPGSA,A,3,01,02,03,04,05,06,07,08,09,10,11,12,1.0,1.0,1.0*30
$GPRMC,150806.312,A,4744.731,N,00320.949,W,059.3,166.5,030624,000.0,W*69
$GPGGA,150806.412,4744.730,N,00320.949,W,1,12,1.0,0.0,M,0.0,M,,*73
$GPGSA,A,3,01,02,03,04,05,06,07,08,09,10,11,12,1.0,1.0,1.0*30
$GPRMC,150806.412,A,4744.730,N,00320.949,W,059.3,166.5,030624,000.0,W*6F
$GPGGA,150806.512,4744.728,N,00320.949,W,1,12,1.0,0.0,M,0.0,M,,*7B
$GPGSA,A,3,01,02,03,04,05,06,07,08,09,10,11,12,1.0,1.0,1.0*30
$GPRMC,150806.512,A,4744.728,N,00320.949,W,059.3,166.5,030624,000.0,W*67
$GPGGA,150806.612,4744.726,N,00320.948,W,1,12,1.0,0.0,M,0.0,M,,*77
$GPGSA,A,3,01,02,03,04,05,06,07,08,09,10,11,12,1.0,1.0,1.0*30
$GPRMC,150806.612,A,4744.726,N,00320.948,W,059.3,166.5,030624,000.0,W*6B
$GPGGA,150806.712,4744.725,N,00320.948,W,1,12,1.0,0.0,M,0.0,M,,*75
$GPGSA,A,3,01,02,03,04,05,06,07,08,09,10,11,12,1.0,1.0,1.0*30
$GPRMC,150806.712,A,4744.725,N,00320.948,W,059.3,166.5,030624,000.0,W*69
$GPGGA,150806.812,4744.723,N,00320.948,W,1,12,1.0,0.0,M,0.0,M,,*7C
$GPGSA,A,3,01,02,03,04,05,06,07,08,09,10,11,12,1.0,1.0,1.0*30
$GPRMC,150806.812,A,4744.723,N,00320.948,W,059.3,166.5,030624,000.0,W*60
$GPGGA,150806.912,4744.721,N,00320.947,W,1,12,1.0,0.0,M,0.0,M,,*70
$GPGSA,A,3,01,02,03,04,05,06,07,08,09,10,11,12,1.0,1.0,1.0*30
$GPRMC,150806.912,A,4744.721,N,00320.947,W,059.3,166.5,030624,000.0,W*6C
$GPGGA,150807.012,4744.720,N,00320.947,W,1,12,1.0,0.0,M,0.0,M,,*79
$GPGSA,A,3,01,02,03,04,05,06,07,08,09,10,11,12,1.0,1.0,1.0*30
$GPRMC,150807.012,A,4744.720,N,00320.947,W,059.3,166.5,030624,000.0,W*65
$GPGGA,150807.112,4744.718,N,00320.946,W,1,12,1.0,0.0,M,0.0,M,,*72
$GPGSA,A,3,01,02,03,04,05,06,07,08,09,10,11,12,1.0,1.0,1.0*30
$GPRMC,150807.112,A,4744.718,N,00320.946,W,059.3,166.5,030624,000.0,W*6E
$GPGGA,150807.212,4744.717,N,00320.946,W,1,12,1.0,0.0,M,0.0,M,,*7E
$GPGSA,A,3,01,02,03,04,05,06,07,08,09,10,11,12,1.0,1.0,1.0*30
$GPRMC,150807.212,A,4744.717,N,00320.946,W,059.3,166.5,030624,000.0,W*62
$GPGGA,150807.312,4744.715,N,00320.946,W,1,12,1.0,0.0,M,0.0,M,,*7D
$GPGSA,A,3,01,02,03,04,05,06,07,08,09,10,11,12,1.0,1.0,1.0*30
$GPRMC,150807.312,A,4744.715,N,00320.946,W,059.3,166.5,030624,000.0,W*61
$GPGGA,150807.412,4744.713,N,00320.945,W,1,12,1.0,0.0,M,0.0,M,,*7F
$GPGSA,A,3,01,02,03,04,05,06,07,08,09,10,11,12,1.0,1.0,1.0*30
$GPRMC,150807.412,A,4744.713,N,00320.945,W,059.3,166.5,030624,000.0,W*63
$GPGGA,150807.512,4744.712,N,00320.945,W,1,12,1.0,0.0,M,0.0,M,,*7F
$GPGSA,A,3,01,02,03,04,05,06,07,08,09,10,11,12,1.0,1.0,1.0*30
$GPRMC,150807.512,A,4744.712,N,00320.945,W,059.3,166.5,030624,000.0,W*63
$GPGGA,150807.612,4744.710,N,00320.944,W,1,12,1.0,0.0,M,0.0,M,,*7F
$GPGSA,A,3,01,02,03,04,05,06,07,08,09,10,11,12,1.0,1.0,1.0*30
$GPRMC,150807.612,A,4744.710,N,00320.944,W,059.3,166.5,030624,000.0,W*63
$GPGGA,150807.712,4744.708,N,00320.944,W,1,12,1.0,0.0,M,0.0,M,,*77
$GPGSA,A,3,01,02,03,04,05,06,07,08,09,10,11,12,1.0,1.0,1.0*30
$GPRMC,150807.712,A,4744.708,N,00320.944,W,059.3,166.5,030624,000.0,W*6B
$GPGGA,150807.812,4744.707,N,00320.944,W,1,12,1.0,0.0,M,0.0,M,,*77
$GPGSA,A,3,01,02,03,04,05,06,07,08,09,10,11,12,1.0,1.0,1.0*30
$GPRMC,150807.812,A,4744.707,N,00320.944,W,059.3,166.5,030624,000.0,W*6B
$GPGGA,150807.912,4744.705,N,00320.943,W,1,12,1.0,0.0,M,0.0,M,,*73
$GPGSA,A,3,01,02,03,04,05,06,07,08,09,10,11,12,1.0,1.0,1.0*30
$GPRMC,150807.912,A,4744.705,N,00320.943,W,059.3,166.5,030624,000.0,W*6F
$GPGGA,150808.012,4744.704,N,00320.943,W,1,12,1.0,0.0,M,0.0,M,,*74
$GPGSA,A,3,01,02,03,04,05,06,07,08,09,10,11,12,1.0,1.0,1.0*30
$GPRMC,150808.012,A,4744.704,N,00320.943,W,059.3,166.5,030624,000.0,W*68
$GPGGA,150808.112,4744.702,N,00320.942,W,1,12,1.0,0.0,M,0.0,M,,*72
$GPGSA,A,3,01,02,03,04,05,06,07,08,09,10,11,12,1.0,1.0,1.0*30
$GPRMC,150808.112,A,4744.702,N,00320.942,W,059.3,166.5,030624,000.0,W*6E
$GPGGA,150808.212,4744.700,N,00320.942,W,1,12,1.0,0.0,M,0.0,M,,*73
$GPGSA,A,3,01,02,03,04,05,06,07,08,09,10,11,12,1.0,1.0,1.0*30
$GPRMC,150808.212,A,4744.700,N,00320.942,W,059.3,166.5,030624,000.0,W*6F
$GPGGA,150808.312,4744.699,N,00320.942,W,1,12,1.0,0.0,M,0.0,M,,*73
$GPGSA,A,3,01,02,03,04,05,06,07,08,09,10,11,12,1.0,1.0,1.0*30
$GPRMC,150808.312,A,4744.699,N,00320.942,W,059.3,166.5,030624,000.0,W*6F
$GPGGA,150808.412,4744.697,N,00320.941,W,1,12,1.0,0.0,M,0.0,M,,*79
$GPGSA,A,3,01,02,03,04,05,06,07,08,09,10,11,12,1.0,1.0,1.0*30
$GPRMC,150808.412,A,4744.697,N,00320.941,W,059.3,166.5,030624,000.0,W*65
$GPGGA,150808.512,4744.695,N,00320.941,W,1,12,1.0,0.0,M,0.0,M,,*7A
$GPGSA,A,3,01,02,03,04,05,06,07,08,09,10,11,12,1.0,1.0,1.0*30
$GPRMC,150808.512,A,4744.695,N,00320.941,W,059.3,166.5,030624,000.0,W*66
$GPGGA,150808.612,4744.694,N,00320.940,W,1,12,1.0,0.0,M,0.0,M,,*79
$GPGSA,A,3,01,02,03,04,05,06,07,08,09,10,11,12,1.0,1.0,1.0*30
$GPRMC,150808.612,A,4744.694,N,00320.940,W,059.3,166.5,030624,000.0,W*65
$GPGGA,150808.712,4744.692,N,00320.940,W,1,12,1.0,0.0,M,0.0,M,,*7E
$GPGSA,A,3,01,02,03,04,05,06,07,08,09,10,11,12,1.0,1.0,1.0*30
$GPRMC,150808.712,A,4744.692,N,00320.940,W,059.3,166.5,030624,000.0,W*62
$GPGGA,150808.812,4744.691,N,00320.940,W,1,12,1.0,0.0,M,0.0,M,,*72
$GPGSA,A,3,01,02,03,04,05,06,07,08,09,10,11,12,1.0,1.0,1.0*30
$GPRMC,150808.812,A,4744.691,N,00320.940,W,059.3,166.5,030624,000.0,W*6E
$GPGGA,150808.912,4744.689,N,00320.939,W,1,12,1.0,0.0,M,0.0,M,,*74
$GPGSA,A,3,01,02,03,04,05,06,07,08,09,10,11,12,1.0,1.0,1.0*30
$GPRMC,150808.912,A,4744.689,N,00320.939,W,059.3,166.5,030624,000.0,W*68
$GPGGA,150809.012,4744.687,N,00320.939,W,1,12,1.0,0.0,M,0.0,M,,*72
$GPGSA,A,3,01,02,03,04,05,06,07,08,09,10,11,12,1.0,1.0,1.0*30
$GPRMC,150809.012,A,4744.687,N,00320.939,W,059.3,166.5,030624,000.0,W*6E
$GPGGA,150809.112,4744.686,N,00320.939,W,1,12,1.0,0.0,M,0.0,M,,*72
$GPGSA,A,3,01,02,03,04,05,06,07,08,09,10,11,12,1.0,1.0,1.0*30
$GPRMC,150809.112,A,4744.686,N,00320.939,W,059.3,166.5,030624,000.0,W*6E
$GPGGA,150809.212,4744.684,N,00320.938,W,1,12,1.0,0.0,M,0.0,M,,*72
$GPGSA,A,3,01,02,03,04,05,06,07,08,09,10,11,12,1.0,1.0,1.0*30
$GPRMC,150809.212,A,4744.684,N,00320.938,W,059.3,166.5,030624,000.0,W*6E
$GPGGA,150809.312,4744.682,N,00320.938,W,1,12,1.0,0.0,M,0.0,M,,*75
$GPGSA,A,3,01,02,03,04,05,06,07,08,09,10,11,12,1.0,1.0,1.0*30
$GPRMC,150809.312,A,4744.682,N,00320.938,W,059.3,166.5,030624,000.0,W*69
$GPGGA,150809.412,4744.681,N,00320.937,W,1,12,1.0,0.0,M,0.0,M,,*7E
$GPGSA,A,3,01,02,03,04,05,06,07,08,09,10,11,12,1.0,1.0,1.0*30
$GPRMC,150809.412,A,4744.681,N,00320.937,W,059.3,166.5,030624,000.0,W*62
$GPGGA,150809.512,4744.679,N,00320.937,W,1,12,1.0,0.0,M,0.0,M,,*78
$GPGSA,A,3,01,02,03,04,05,06,07,08,09,10,11,12,1.0,1.0,1.0*30
$GPRMC,150809.512,A,4744.679,N,00320.937,W,059.3,166.5,030624,000.0,W*64
$GPGGA,150809.612,4744.678,N,00320.937,W,1,12,1.0,0.0,M,0.0,M,,*7A
$GPGSA,A,3,01,02,03,04,05,06,07,08,09,10,11,12,1.0,1.0,1.0*30
$GPRMC,150809.612,A,4744.678,N,00320.937,W,059.3,166.5,030624,000.0,W*66
$GPGGA,150809.712,4744.676,N,00320.936,W,1,12,1.0,0.0,M,0.0,M,,*74
$GPGSA,A,3,01,02,03,04,05,06,07,08,09,10,11,12,1.0,1.0,1.0*30
$GPRMC,150809.712,A,4744.676,N,00320.936,W,059.3,166.5,030624,000.0,W*68
$GPGGA,150809.812,4744.674,N,00320.936,W,1,12,1.0,0.0,M,0.0,M,,*79
$GPGSA,A,3,01,02,03,04,05,06,07,08,09,10,11,12,1.0,1.0,1.0*30
$GPRMC,150809.812,A,4744.674,N,00320.936,W,059.3,166.5,030624,000.0,W*65
$GPGGA,150809.912,4744.673,N,00320.935,W,1,12,1.0,0.0,M,0.0,M,,*7C
$GPGSA,A,3,01,02,03,04,05,06,07,08,09,10,11,12,1.0,1.0,1.0*30
$GPRMC,150809.912,A,4744.673,N,00320.935,W,059.3,166.5,030624,000.0,W*60
$GPGGA,150810.012,4744.671,N,00320.935,W,1,12,1.0,0.0,M,0.0,M,,*7F
$GPGSA,A,3,01,02,03,04,05,06,07,08,09,10,11,12,1.0,1.0,1.0*30
$GPRMC,150810.012,A,4744.671,N,00320.935,W,059.3,166.5,030624,000.0,W*63
$GPGGA,150810.112,4744.669,N,00320.935,W,1,12,1.0,0.0,M,0.0,M,,*77
$GPGSA,A,3,01,02,03,04,05,06,07,08,09,10,11,12,1.0,1.0,1.0*30
$GPRMC,150810.112,A,4744.669,N,00320.935,W,059.3,166.5,030624,000.0,W*6B
$GPGGA,150810.212,4744.668,N,00320.934,W,1,12,1.0,0.0,M,0.0,M,,*74
$GPGSA,A,3,01,02,03,04,05,06,07,08,09,10,11,12,1.0,1.0,1.0*30
$GPRMC,150810.212,A,4744.668,N,00320.934,W,059.3,166.5,030624,000.0,W*68
$GPGGA,150810.312,4744.666,N,00320.934,W,1,12,1.0,0.0,M,0.0,M,,*7B
$GPGSA,A,3,01,02,03,04,05,06,07,08,09,10,11,12,1.0,1.0,1.0*30
$GPRMC,150810.312,A,4744.666,N,00320.934,W,059.3,166.5,030624,000.0,W*67
$GPGGA,150810.412,4744.665,N,00320.933,W,1,12,1.0,0.0,M,0.0,M,,*78
$GPGSA,A,3,01,02,03,04,05,06,07,08,09,10,11,12,1.0,1.0,1.0*30
$GPRMC,150810.412,A,4744.665,N,00320.933,W,059.3,166.5,030624,000.0,W*64
$GPGGA,150810.512,4744.663,N,00320.933,W,1,12,1.0,0.0,M,0.0,M,,*7F
$GPGSA,A,3,01,02,03,04,05,06,07,08,09,10,11,12,1.0,1.0,1.0*30
$GPRMC,150810.512,A,4744.663,N,00320.933,W,059.3,166.5,030624,000.0,W*63
$GPGGA,150810.612,4744.661,N,00320.933,W,1,12,1.0,0.0,M,0.0,M,,*7E
$GPGSA,A,3,01,02,03,04,05,06,07,08,09,10,11,12,1.0,1.0,1.0*30
$GPRMC,150810.612,A,4744.661,N,00320.933,W,059.3,166.5,030624,000.0,W*62
$GPGGA,150810.712,4744.660,N,00320.932,W,1,12,1.0,0.0,M,0.0,M,,*7F
$GPGSA,A,3,01,02,03,04,05,06,07,08,09,10,11,12,1.0,1.0,1.0*30
$GPRMC,150810.712,A,4744.660,N,00320.932,W,059.3,166.5,030624,000.0,W*63
$GPGGA,150810.812,4744.658,N,00320.932,W,1,12,1.0,0.0,M,0.0,M,,*7B
$GPGSA,A,3,01,02,03,04,05,06,07,08,09,10,11,12,1.0,1.0,1.0*30
$GPRMC,150810.812,A,4744.658,N,00320.932,W,059.3,166.5,030624,000.0,W*67
$GPGGA,150810.912,4744.656,N,00320.932,W,1,12,1.0,0.0,M,0.0,M,,*74
$GPGSA,A,3,01,02,03,04,05,06,07,08,09,10,11,12,1.0,1.0,1.0*30
$GPRMC,150810.912,A,4744.656,N,00320.932,W,059.3,166.5,030624,000.0,W*68
$GPGGA,150811.012,4744.655,N,00320.931,W,1,12,1.0,0.0,M,0.0,M,,*7C
$GPGSA,A,3,01,02,03,04,05,06,07,08,09,10,11,12,1.0,1.0,1.0*30
$GPRMC,150811.012,A,4744.655,N,00320.931,W,059.3,166.5,030624,000.0,W*60
$GPGGA,150811.112,4744.653,N,00320.931,W,1,12,1.0,0.0,M,0.0,M,,*7B
$GPGSA,A,3,01,02,03,04,05,06,07,08,09,10,11,12,1.0,1.0,1.0*30
$GPRMC,150811.112,A,4744.653,N,00320.931,W,059.3,166.5,030624,000.0,W*67
$GPGGA,150811.212,4744.652,N,00320.930,W,1,12,1.0,0.0,M,0.0,M,,*78
$GPGSA,A,3,01,02,03,04,05,06,07,08,09,10,11,12,1.0,1.0,1.0*30
$GPRMC,150811.212,A,4744.652,N,00320.930,W,059.3,166.5,030624,000.0,W*64
$GPGGA,150811.312,4744.650,N,00320.930,W,1,12,1.0,0.0,M,0.0,M,,*7B
$GPGSA,A,3,01,02,03,04,05,06,07,08,09,10,11,12,1.0,1.0,1.0*30
$GPRMC,150811.312,A,4744.650,N,00320.930,W,059.3,166.5,030624,000.0,W*67
$GPGGA,150811.412,4744.648,N,00320.930,W,1,12,1.0,0.0,M,0.0,M,,*75
$GPGSA,A,3,01,02,03,04,05,06,07,08,09,10,11,12,1.0,1.0,1.0*30
$GPRMC,150811.412,A,4744.648,N,00320.930,W,059.3,166.5,030624,000.0,W*69
$GPGGA,150811.512,4744.647,N,00320.929,W,1,12,1.0,0.0,M,0.0,M,,*73
$GPGSA,A,3,01,02,03,04,05,06,07,08,09,10,11,12,1.0,1.0,1.0*30
$GPRMC,150811.512,A,4744.647,N,00320.929,W,059.3,166.5,030624,000.0,W*6F
$GPGGA,150811.612,4744.645,N,00320.929,W,1,12,1.0,0.0,M,0.0,M,,*72
$GPGSA,A,3,01,02,03,04,05,06,07,08,09,10,11,12,1.0,1.0,1.0*30
$GPRMC,150811.612,A,4744.645,N,00320.929,W,059.3,166.5,030624,000.0,W*6E
$GPGGA,150811.712,4744.643,N,00320.928,W,1,12,1.0,0.0,M,0.0,M,,*74
$GPGSA,A,3,01,02,03,04,05,06,07,08,09,10,11,12,1.0,1.0,1.0*30
$GPRMC,150811.712,A,4744.643,N,00320.928,W,059.3,166.5,030624,000.0,W*68
$GPGGA,150811.812,4744.642,N,00320.928,W,1,12,1.0,0.0,M,0.0,M,,*7A
$GPGSA,A,3,01,02,03,04,05,06,07,08,09,10,11,12,1.0,1.0,1.0*30
$GPRMC,150811.812,A,4744.642,N,00320.928,W,059.3,166.5,030624,000.0,W*66
$GPGGA,150811.912,4744.640,N,00320.928,W,1,12,1.0,0.0,M,0.0,M,,*79
$GPGSA,A,3,01,02,03,04,05,06,07,08,09,10,11,12,1.0,1.0,1.0*30
$GPRMC,150811.912,A,4744.640,N,00320.928,W,059.3,166.5,030624,000.0,W*65
$GPGGA,150812.012,4744.639,N,00320.927,W,1,12,1.0,0.0,M,0.0,M,,*72
$GPGSA,A,3,01,02,03,04,05,06,07,08,09,10,11,12,1.0,1.0,1.0*30
$GPRMC,150812.012,A,4744.639,N,00320.927,W,059.3,166.5,030624,000.0,W*6E
$GPGGA,150812.112,4744.637,N,00320.927,W,1,12,1.0,0.0,M,0.0,M,,*7D
$GPGSA,A,3,01,02,03,04,05,06,07,08,09,10,11,12,1.0,1.0,1.0*30
$GPRMC,150812.112,A,4744.637,N,00320.927,W,059.3,166.5,030624,000.0,W*61
$GPGGA,150812.212,4744.635,N,00320.926,W,1,12,1.0,0.0,M,0.0,M,,*7D
$GPGSA,A,3,01,02,03,04,05,06,07,08,09,10,11,12,1.0,1.0,1.0*30
$GPRMC,150812.212,A,4744.635,N,00320.926,W,059.3,166.5,030624,000.0,W*61
$GPGGA,150812.312,4744.634,N,00320.926,W,1,12,1.0,0.0,M,0.0,M,,*7D
$GPGSA,A,3,01,02,03,04,05,06,07,08,09,10,11,12,1.0,1.0,1.0*30
$GPRMC,150812.312,A,4744.634,N,00320.926,W,059.3,166.5,030624,000.0,W*61
$GPGGA,150812.412,4744.632,N,00320.926,W,1,12,1.0,0.0,M,0.0,M,,*7C
$GPGSA,A,3,01,02,03,04,05,06,07,08,09,10,11,12,1.0,1.0,1.0*30
$GPRMC,150812.412,A,4744.632,N,00320.926,W,059.3,166.5,030624,000.0,W*60
$GPGGA,150812.512,4744.630,N,00320.925,W,1,12,1.0,0.0,M,0.0,M,,*7C
$GPGSA,A,3,01,02,03,04,05,06,07,08,09,10,11,12,1.0,1.0,1.0*30
$GPRMC,150812.512,A,4744.630,N,00320.925,W,059.3,166.5,030624,000.0,W*60
$GPGGA,150812.612,4744.629,N,00320.925,W,1,12,1.0,0.0,M,0.0,M,,*77
$GPGSA,A,3,01,02,03,04,05,06,07,08,09,10,11,12,1.0,1.0,1.0*30
$GPRMC,150812.612,A,4744.629,N,00320.925,W,059.3,166.5,030624,000.0,W*6B
$GPGGA,150812.712,4744.627,N,00320.924,W,1,12,1.0,0.0,M,0.0,M,,*79
$GPGSA,A,3,01,02,03,04,05,06,07,08,09,10,11,12,1.0,1.0,1.0*30
$GPRMC,150812.712,A,4744.627,N,00320.924,W,059.3,166.5,030624,000.0,W*65
$GPGGA,150812.812,4744.626,N,00320.924,W,1,12,1.0,0.0,M,0.0,M,,*77
$GPGSA,A,3,01,02,03,04,05,06,07,08,09,10,11,12,1.0,1.0,1.0*30
$GPRMC,150812.812,A,4744.626,N,00320.924,W,059.3,166.5,030624,000.0,W*6B
$GPGGA,150812.912,4744.624,N,00320.924,W,1,12,1.0,0.0,M,0.0,M,,*74
$GPGSA,A,3,01,02,03,04,05,06,07,08,09,10,11,12,1.0,1.0,1.0*30
$GPRMC,150812.912,A,4744.624,N,00320.924,W,059.3,166.5,030624,000.0,W*68
$GPGGA,150813.012,4744.622,N,00320.923,W,1,12,1.0,0.0,M,0.0,M,,*7D
$GPGSA,A,3,01,02,03,04,05,06,07,08,09,10,11,12,1.0,1.0,1.0*30
$GPRMC,150813.012,A,4744.622,N,00320.923,W,059.3,166.5,030624,000.0,W*61
$GPGGA,150813.112,4744.621,N,00320.923,W,1,12,1.0,0.0,M,0.0,M,,*7F
$GPGSA,A,3,01,02,03,04,05,06,07,08,09,10,11,12,1.0,1.0,1.0*30
$GPRMC,150813.112,A,4744.621,N,00320.923,W,059.3,166.5,030624,000.0,W*63
$GPGGA,150813.212,4744.619,N,00320.923,W,1,12,1.0,0.0,M,0.0,M,,*77
$GPGSA,A,3,01,02,03,04,05,06,07,08,09,10,11,12,1.0,1.0,1.0*30
$GPRMC,150813.212,A,4744.619,N,00320.923,W,059.3,166.5,030624,000.0,W*6B
$GPGGA,150813.312,4744.617,N,00320.922,W,1,12,1.0,0.0,M,0.0,M,,*79
$GPGSA,A,3,01,02,03,04,05,06,07,08,09,10,11,12,1.0,1.0,1.0*30
$GPRMC,150813.312,A,4744.617,N,00320.922,W,059.3,166.5,030624,000.0,W*65
$GPGGA,150813.412,4744.616,N,00320.922,W,1,12,1.0,0.0,M,0.0,M,,*7F
$GPGSA,A,3,01,02,03,04,05,06,07,08,09,10,11,12,1.0,1.0,1.0*30
$GPRMC,150813.412,A,4744.616,N,00320.922,W,059.3,166.5,030624,000.0,W*63
$GPGGA,150813.512,4744.614,N,00320.921,W,1,12,1.0,0.0,M,0.0,M,,*7F
$GPGSA,A,3,01,02,03,04,05,06,07,08,09,10,11,12,1.0,1.0,1.0*30
$GPRMC,150813.512,A,4744.614,N,00320.921,W,059.3,166.5,030624,000.0,W*63
$GPGGA,150813.612,4744.613,N,00320.921,W,1,12,1.0,0.0,M,0.0,M,,*7B
$GPGSA,A,3,01,02,03,04,05,06,07,08,09,10,11,12,1.0,1.0,1.0*30
$GPRMC,150813.612,A,4744.613,N,00320.921,W,059.3,166.5,030624,000.0,W*67
$GPGGA,150813.712,4744.611,N,00320.921,W,1,12,1.0,0.0,M,0.0,M,,*78
$GPGSA,A,3,01,02,03,04,05,06,07,08,09,10,11,12,1.0,1.0,1.0*30
$GPRMC,150813.712,A,4744.611,N,00320.921,W,059.3,166.5,030624,000.0,W*64
$GPGGA,150813.812,4744.609,N,00320.920,W,1,12,1.0,0.0,M,0.0,M,,*7F
$GPGSA,A,3,01,02,03,04,05,06,07,08,09,10,11,12,1.0,1.0,1.0*30
$GPRMC,150813.812,A,4744.609,N,00320.920,W,059.3,166.5,030624,000.0,W*63
$GPGGA,150813.912,4744.608,N,00320.920,W,1,12,1.0,0.0,M,0.0,M,,*7F
$GPGSA,A,3,01,02,03,04,05,06,07,08,09,10,11,12,1.0,1.0,1.0*30
$GPRMC,150813.912,A,4744.608,N,00320.920,W,059.3,166.5,030624,000.0,W*63
$GPGGA,150814.012,4744.606,N,00320.919,W,1,12,1.0,0.0,M,0.0,M,,*75
$GPGSA,A,3,01,02,03,04,05,06,07,08,09,10,11,12,1.0,1.0,1.0*30
$GPRMC,150814.012,A,4744.606,N,00320.919,W,059.3,166.5,030624,000.0,W*69
$GPGGA,150814.112,4744.604,N,00320.919,W,1,12,1.0,0.0,M,0.0,M,,*76
$GPGSA,A,3,01,02,03,04,05,06,07,08,09,10,11,12,1.0,1.0,1.0*30
$GPRMC,150814.112,A,4744.604,N,00320.919,W,059.3,166.5,030624,000.0,W*6A
$GPGGA,150814.212,4744.603,N,00320.919,W,1,12,1.0,0.0,M,0.0,M,,*72
$GPGSA,A,3,01,02,03,04,05,06,07,08,09,10,11,12,1.0,1.0,1.0*30
$GPRMC,150814.212,A,4744.603,N,00320.919,W,059.3,166.5,030624,000.0,W*6E
$GPGGA,150814.312,4744.601,N,00320.918,W,1,12,1.0,0.0,M,0.0,M,,*70
$GPGSA,A,3,01,02,03,04,05,06,07,08,09,10,11,12,1.0,1.0,1.0*30
$GPRMC,150814.312,A,4744.601,N,00320.918,W,059.3,166.5,030624,000.0,W*6C
$GPGGA,150814.412,4744.600,N,00320.918,W,1,12,1.0,0.0,M,0.0,M,,*76
$GPGSA,A,3,01,02,03,04,05,06,07,08,09,10,11,12,1.0,1.0,1.0*30
$GPRMC,150814.412,A,4744.600,N,00320.918,W,059.3,166.5,030624,000.0,W*6A
$GPGGA,150814.512,4744.598,N,00320.917,W,1,12,1.0,0.0,M,0.0,M,,*7A
$GPGSA,A,3,01,02,03,04,05,06,07,08,09,10,11,12,1.0,1.0,1.0*30
$GPRMC,150814.512,A,4744.598,N,00320.917,W,059.3,166.5,030624,000.0,W*66
$GPGGA,150814.612,4744.596,N,00320.917,W,1,12,1.0,0.0,M,0.0,M,,*77
$GPGSA,A,3,01,02,03,04,05,06,07,08,09,10,11,12,1.0,1.0,1.0*30
$GPRMC,150814.612,A,4744.596,N,00320.917,W,059.3,166.5,030624,000.0,W*6B
$GPGGA,150814.712,4744.595,N,00320.917,W,1,12,1.0,0.0,M,0.0,M,,*75
$GPGSA,A,3,01,02,03,04,05,06,07,08,09,10,11,12,1.0,1.0,1.0*30
$GPRMC,150814.712,A,4744.595,N,00320.917,W,059.3,166.5,030624,000.0,W*69
$GPGGA,150814.812,4744.593,N,00320.916,W,1,12,1.0,0.0,M,0.0,M,,*7D
$GPGSA,A,3,01,02,03,04,05,06,07,08,09,10,11,12,1.0,1.0,1.0*30
$GPRMC,150814.812,A,4744.593,N,00320.916,W,059.3,166.5,030624,000.0,W*61
$GPGGA,150814.912,4744.591,N,00320.916,W,1,12,1.0,0.0,M,0.0,M,,*7E
$GPGSA,A,3,01,02,03,04,05,06,07,08,09,10,11,12,1.0,1.0,1.0*30
$GPRMC,150814.912,A,4744.591,N,00320.916,W,059.3,166.5,030624,000.0,W*62
$GPGGA,150815.012,4744.590,N,00320.915,W,1,12,1.0,0.0,M,0.0,M,,*74
$GPGSA,A,3,01,02,03,04,05,06,07,08,09,10,11,12,1.0,1.0,1.0*30
$GPRMC,150815.012,A,4744.590,N,00320.915,W,059.3,166.5,030624,000.0,W*68
$GPGGA,150815.112,4744.588,N,00320.915,W,1,12,1.0,0.0,M,0.0,M,,*7C
$GPGSA,A,3,01,02,03,04,05,06,07,08,09,10,11,12,1.0,1.0,1.0*30
$GPRMC,150815.112,A,4744.588,N,00320.915,W,059.3,166.5,030624,000.0,W*60
$GPGGA,150815.212,4744.587,N,00320.915,W,1,12,1.0,0.0,M,0.0,M,,*70
$GPGSA,A,3,01,02,03,04,05,06,07,08,09,10,11,12,1.0,1.0,1.0*30
$GPRMC,150815.212,A,4744.587,N,00320.915,W,059.3,166.5,030624,000.0,W*6C
$GPGGA,150815.312,4744.585,N,00320.914,W,1,12,1.0,0.0,M,0.0,M,,*72
$GPGSA,A,3,01,02,03,04,05,06,07,08,09,10,11,12,1.0,1.0,1.0*30
$GPRMC,150815.312,A,4744.585,N,00320.914,W,059.3,166.5,030624,000.0,W*6E
$GPGGA,150815.412,4744.583,N,00320.914,W,1,12,1.0,0.0,M,0.0,M,,*73
$GPGSA,A,3,01,02,03,04,05,06,07,08,09,10,11,12,1.0,1.0,1.0*30
$GPRMC,150815.412,A,4744.583,N,00320.914,W,059.3,166.5,030624,000.0,W*6F
$GPGGA,150815.512,4744.582,N,00320.914,W,1,12,1.0,0.0,M,0.0,M,,*73
$GPGSA,A,3,01,02,03,04,05,06,07,08,09,10,11,12,1.0,1.0,1.0*30
$GPRMC,150815.512,A,4744.582,N,00320.914,W,059.3,166.5,030624,000.0,W*6F
$GPGGA,150815.612,4744.580,N,00320.913,W,1,12,1.0,0.0,M,0.0,M,,*75
$GPGSA,A,3,01,02,03,04,05,06,07,08,09,10,11,12,1.0,1.0,1.0*30
$GPRMC,150815.612,A,4744.580,N,00320.913,W,059.3,166.5,030624,000.0,W*69
$GPGGA,150815.712,4744.578,N,00320.913,W,1,12,1.0,0.0,M,0.0,M,,*73
$GPGSA,A,3,01,02,03,04,05,06,07,08,09,10,11,12,1.0,1.0,1.0*30
$GPRMC,150815.712,A,4744.578,N,00320.913,W,059.3,166.5,030624,000.0,W*6F
$GPGGA,150815.812,4744.577,N,00320.912,W,1,12,1.0,0.0,M,0.0,M,,*72
$GPGSA,A,3,01,02,03,04,05,06,07,08,09,10,11,12,1.0,1.0,1.0*30
$GPRMC,150815.812,A,4744.577,N,00320.912,W,059.3,166.5,030624,000.0,W*6E
$GPGGA,150815.912,4744.575,N,00320.912,W,1,12,1.0,0.0,M,0.0,M,,*71
$GPGSA,A,3,01,02,03,04,05,06,07,08,09,10,11,12,1.0,1.0,1.0*30
$GPRMC,150815.912,A,4744.575,N,00320.912,W,059.3,166.5,030624,000.0,W*6D
$GPGGA,150816.012,4744.574,N,00320.912,W,1,12,1.0,0.0,M,0.0,M,,*7A
$GPGSA,A,3,01,02,03,04,05,06,07,08,09,10,11,12,1.0,1.0,1.0*30
$GPRMC,150816.012,A,4744.574,N,00320.912,W,059.3,166.5,030624,000.0,W*66
$GPGGA,150816.112,4744.572,N,00320.911,W,1,12,1.0,0.0,M,0.0,M,,*7E
$GPGSA,A,3,01,02,03,04,05,06,07,08,09,10,11,12,1.0,1.0,1.0*30
$GPRMC,150816.112,A,4744.572,N,00320.911,W,059.3,166.5,030624,000.0,W*62
$GPGGA,150816.212,4744.570,N,00320.911,W,1,12,1.0,0.0,M,0.0,M,,*7F
$GPGSA,A,3,01,02,03,04,05,06,07,08,09,10,11,12,1.0,1.0,1.0*30
$GPRMC,150816.212,A,4744.570,N,00320.911,W,059.3,166.5,030624,000.0,W*63
$GPGGA,150816.312,4744.569,N,00320.910,W,1,12,1.0,0.0,M,0.0,M,,*77
$GPGSA,A,3,01,02,03,04,05,06,07,08,09,10,11,12,1.0,1.0,1.0*30
$GPRMC,150816.312,A,4744.569,N,00320.910,W,059.3,166.5,030624,000.0,W*6B
$GPGGA,150816.412,4744.567,N,00320.910,W,1,12,1.0,0.0,M,0.0,M,,*7E
$GPGSA,A,3,01,02,03,04,05,06,07,08,09,10,11,12,1.0,1.0,1.0*30
$GPRMC,150816.412,A,4744.567,N,00320.910,W,059.3,166.5,030624,000.0,W*62
$GPGGA,150816.512,4744.565,N,00320.910,W,1,12,1.0,0.0,M,0.0,M,,*7D
$GPGSA,A,3,01,02,03,04,05,06,07,08,09,10,11,12,1.0,1.0,1.0*30
$GPRMC,150816.512,A,4744.565,N,00320.910,W,059.3,166.5,030624,000.0,W*61
$GPGGA,150816.612,4744.564,N,00320.909,W,1,12,1.0,0.0,M,0.0,M,,*77
$GPGSA,A,3,01,02,03,04,05,06,07,08,09,10,11,12,1.0,1.0,1.0*30
$GPRMC,150816.612,A,4744.564,N,00320.909,W,059.3,166.5,030624,000.0,W*6B
$GPGGA,150816.712,4744.562,N,00320.909,W,1,12,1.0,0.0,M,0.0,M,,*70
$GPGSA,A,3,01,02,03,04,05,06,07,08,09,10,11,12,1.0,1.0,1.0*30
$GPRMC,150816.712,A,4744.562,N,00320.909,W,059.3,166.5,030624,000.0,W*6C
$GPGGA,150816.812,4744.561,N,00320.908,W,1,12,1.0,0.0,M,0.0,M,,*7D
$GPGSA,A,3,01,02,03,04,05,06,07,08,09,10,11,12,1.0,1.0,1.0*30
$GPRMC,150816.812,A,4744.561,N,00320.908,W,059.3,166.5,030624,000.0,W*61
$GPGGA,150816.912,4744.559,N,00320.908,W,1,12,1.0,0.0,M,0.0,M,,*77
$GPGSA,A,3,01,02,03,04,05,06,07,08,09,10,11,12,1.0,1.0,1.0*30
$GPRMC,150816.912,A,4744.559,N,00320.908,W,059.3,166.5,030624,000.0,W*6B
$GPGGA,150817.012,4744.557,N,00320.908,W,1,12,1.0,0.0,M,0.0,M,,*71
$GPGSA,A,3,01,02,03,04,05,06,07,08,09,10,11,12,1.0,1.0,1.0*30
$GPRMC,150817.012,A,4744.557,N,00320.908,W,059.3,166.5,030624,000.0,W*6D
$GPGGA,150817.112,4744.556,N,00320.907,W,1,12,1.0,0.0,M,0.0,M,,*7E
$GPGSA,A,3,01,02,03,04,05,06,07,08,09,10,11,12,1.0,1.0,1.0*30
$GPRMC,150817.112,A,4744.556,N,00320.907,W,059.3,166.5,030624,000.0,W*62
$GPGGA,150817.212,4744.554,N,00320.907,W,1,12,1.0,0.0,M,0.0,M,,*7F
$GPGSA,A,3,01,02,03,04,05,06,07,08,09,10,11,12,1.0,1.0,1.0*30
$GPRMC,150817.212,A,4744.554,N,00320.907,W,059.3,166.5,030624,000.0,W*63
$GPGGA,150817.312,4744.552,N,00320.907,W,1,12,1.0,0.0,M,0.0,M,,*78
$GPGSA,A,3,01,02,03,04,05,06,07,08,09,10,11,12,1.0,1.0,1.0*30
$GPRMC,150817.312,A,4744.552,N,00320.907,W,059.3,166.5,030624,000.0,W*64
$GPGGA,150817.412,4744.551,N,00320.906,W,1,12,1.0,0.0,M,0.0,M,,*7D
$GPGSA,A,3,01,02,03,04,05,06,07,08,09,10,11,12,1.0,1.0,1.0*30
$GPRMC,150817.412,A,4744.551,N,00320.906,W,059.3,166.5,030624,000.0,W*61
$GPGGA,150817.512,4744.549,N,00320.906,W,1,12,1.0,0.0,M,0.0,M,,*75
$GPGSA,A,3,01,02,03,04,05,06,07,08,09,10,11,12,1.0,1.0,1.0*30
$GPRMC,150817.512,A,4744.549,N,00320.906,W,059.3,166.5,030624,000.0,W*69
$GPGGA,150817.612,4744.548,N,00320.905,W,1,12,1.0,0.0,M,0.0,M,,*74
$GPGSA,A,3,01,02,03,04,05,06,07,08,09,10,11,12,1.0,1.0,1.0*30
$GPRMC,150817.612,A,4744.548,N,00320.905,W,059.3,166.5,030624,000.0,W*68
$GPGGA,150817.712,4744.546,N,00320.905,W,1,12,1.0,0.0,M,0.0,M,,*7B
$GPGSA,A,3,01,02,03,04,05,06,07,08,09,10,11,12,1.0,1.0,1.0*30
$GPRMC,150817.712,A,4744.546,N,00320.905,W,059.3,166.5,030624,000.0,W*67
$GPGGA,150817.812,4744.544,N,00320.905,W,1,12,1.0,0.0,M,0.0,M,,*76
$GPGSA,A,3,01,02,03,04,05,06,07,08,09,10,11,12,1.0,1.0,1.0*30
$GPRMC,150817.812,A,4744.544,N,00320.905,W,059.3,166.5,030624,000.0,W*6A
$GPGGA,150817.912,4744.543,N,00320.904,W,1,12,1.0,0.0,M,0.0,M,,*71
$GPGSA,A,3,01,02,03,04,05,06,07,08,09,10,11,12,1.0,1.0,1.0*30
$GPRMC,150817.912,A,4744.543,N,00320.904,W,059.3,166.5,030624,000.0,W*6D
$GPGGA,150818.012,4744.541,N,00320.904,W,1,12,1.0,0.0,M,0.0,M,,*75
$GPGSA,A,3,01,02,03,04,05,06,07,08,09,10,11,12,1.0,1.0,1.0*30
$GPRMC,150818.012,A,4744.541,N,00320.904,W,059.3,166.5,030624,000.0,W*69
$GPGGA,150818.112,4744.539,N,00320.903,W,1,12,1.0,0.0,M,0.0,M,,*7C
$GPGSA,A,3,01,02,03,04,05,06,07,08,09,10,11,12,1.0,1.0,1.0*30
$GPRMC,150818.112,A,4744.539,N,00320.903,W,059.3,166.5,030624,000.0,W*60
$GPGGA,150818.212,4744.538,N,00320.903,W,1,12,1.0,0.0,M,0.0,M,,*7E
$GPGSA,A,3,01,02,03,04,05,06,07,08,09,10,11,12,1.0,1.0,1.0*30
$GPRMC,150818.212,A,4744.538,N,00320.903,W,059.3,166.5,030624,000.0,W*62
$GPGGA,150818.312,4744.536,N,00320.903,W,1,12,1.0,0.0,M,0.0,M,,*71
$GPGSA,A,3,01,02,03,04,05,06,07,08,09,10,11,12,1.0,1.0,1.0*30
$GPRMC,150818.312,A,4744.536,N,00320.903,W,059.3,166.5,030624,000.0,W*6D
$GPGGA,150818.412,4744.535,N,00320.902,W,1,12,1.0,0.0,M,0.0,M,,*74
$GPGSA,A,3,01,02,03,04,05,06,07,08,09,10,11,12,1.0,1.0,1.0*30
$GPRMC,150818.412,A,4744.535,N,00320.902,W,059.3,166.5,030624,000.0,W*68
$GPGGA,150818.512,4744.533,N,00320.902,W,1,12,1.0,0.0,M,0.0,M,,*73
$GPGSA,A,3,01,02,03,04,05,06,07,08,09,10,11,12,1.0,1.0,1.0*30
$GPRMC,150818.512,A,4744.533,N,00320.902,W,059.3,166.5,030624,000.0,W*6F
$GPGGA,150818.612,4744.531,N,00320.901,W,1,12,1.0,0.0,M,0.0,M,,*71
$GPGSA,A,3,01,02,03,04,05,06,07,08,09,10,11,12,1.0,1.0,1.0*30
$GPRMC,150818.612,A,4744.531,N,00320.901,W,059.3,166.5,030624,000.0,W*6D
$GPGGA,150818.712,4744.530,N,00320.901,W,1,12,1.0,0.0,M,0.0,M,,*71
$GPGSA,A,3,01,02,03,04,05,06,07,08,09,10,11,12,1.0,1.0,1.0*30
$GPRMC,150818.712,A,4744.530,N,00320.901,W,059.3,166.5,030624,000.0,W*6D
$GPGGA,150818.812,4744.528,N,00320.901,W,1,12,1.0,0.0,M,0.0,M,,*77
$GPGSA,A,3,01,02,03,04,05,06,07,08,09,10,11,12,1.0,1.0,1.0*30
$GPRMC,150818.812,A,4744.528,N,00320.901,W,059.3,166.5,030624,000.0,W*6B
$GPGGA,150818.912,4744.526,N,00320.900,W,1,12,1.0,0.0,M,0.0,M,,*79
$GPGSA,A,3,01,02,03,04,05,06,07,08,09,10,11,12,1.0,1.0,1.0*30
$GPRMC,150818.912,A,4744.526,N,00320.900,W,059.3,166.5,030624,000.0,W*65
$GPGGA,150819.012,4744.525,N,00320.900,W,1,12,1.0,0.0,M,0.0,M,,*72
$GPGSA,A,3,01,02,03,04,05,06,07,08,09,10,11,12,1.0,1.0,1.0*30
$GPRMC,150819.012,A,4744.525,N,00320.900,W,059.3,166.5,030624,000.0,W*6E
$GPGGA,150819.112,4744.523,N,00320.899,W,1,12,1.0,0.0,M,0.0,M,,*74
$GPGSA,A,3,01,02,03,04,05,06,07,08,09,10,11,12,1.0,1.0,1.0*30
$GPRMC,150819.112,A,4744.523,N,00320.899,W,059.3,166.5,030624,000.0,W*68
$GPGGA,150819.212,4744.522,N,00320.899,W,1,12,1.0,0.0,M,0.0,M,,*76
$GPGSA,A,3,01,02,03,04,05,06,07,08,09,10,11,12,1.0,1.0,1.0*30
$GPRMC,150819.212,A,4744.522,N,00320.899,W,059.3,166.5,030624,000.0,W*6A
$GPGGA,150819.312,4744.520,N,00320.899,W,1,12,1.0,0.0,M,0.0,M,,*75
$GPGSA,A,3,01,02,03,04,05,06,07,08,09,10,11,12,1.0,1.0,1.0*30
$GPRMC,150819.312,A,4744.520,N,00320.899,W,059.3,166.5,030624,000.0,W*69
$GPGGA,150819.412,4744.518,N,00320.898,W,1,12,1.0,0.0,M,0.0,M,,*78
$GPGSA,A,3,01,02,03,04,05,06,07,08,09,10,11,12,1.0,1.0,1.0*30
$GPRMC,150819.412,A,4744.518,N,00320.898,W,059.3,166.5,030624,000.0,W*64
$GPGGA,150819.512,4744.517,N,00320.898,W,1,12,1.0,0.0,M,0.0,M,,*76
$GPGSA,A,3,01,02,03,04,05,06,07,08,09,10,11,12,1.0,1.0,1.0*30
$GPRMC,150819.512,A,4744.517,N,00320.898,W,059.3,166.5,030624,000.0,W*6A
$GPGGA,150819.612,4744.515,N,00320.898,W,1,12,1.0,0.0,M,0.0,M,,*77
$GPGSA,A,3,01,02,03,04,05,06,07,08,09,10,11,12,1.0,1.0,1.0*30
$GPRMC,150819.612,A,4744.515,N,00320.898,W,059.3,166.5,030624,000.0,W*6B
$GPGGA,150819.712,4744.513,N,00320.897,W,1,12,1.0,0.0,M,0.0,M,,*7F
$GPGSA,A,3,01,02,03,04,05,06,07,08,09,10,11,12,1.0,1.0,1.0*30
$GPRMC,150819.712,A,4744.513,N,00320.897,W,059.3,166.5,030624,000.0,W*63
$GPGGA,150819.812,4744.512,N,00320.897,W,1,12,1.0,0.0,M,0.0,M,,*71
$GPGSA,A,3,01,02,03,04,05,06,07,08,09,10,11,12,1.0,1.0,1.0*30
$GPRMC,150819.812,A,4744.512,N,00320.897,W,059.3,166.5,030624,000.0,W*6D
$GPGGA,150819.912,4744.510,N,00320.896,W,1,12,1.0,0.0,M,0.0,M,,*73
$GPGSA,A,3,01,02,03,04,05,06,07,08,09,10,11,12,1.0,1.0,1.0*30
$GPRMC,150819.912,A,4744.510,N,00320.896,W,059.3,166.5,030624,000.0,W*6F
$GPGGA,150820.012,4744.509,N,00320.896,W,1,12,1.0,0.0,M,0.0,M,,*78
$GPGSA,A,3,01,02,03,04,05,06,07,08,09,10,11,12,1.0,1.0,1.0*30
$GPRMC,150820.012,A,4744.509,N,00320.896,W,059.3,166.5,030624,000.0,W*64
$GPGGA,150820.112,4744.507,N,00320.896,W,1,12,1.0,0.0,M,0.0,M,,*77
$GPGSA,A,3,01,02,03,04,05,06,07,08,09,10,11,12,1.0,1.0,1.0*30
$GPRMC,150820.112,A,4744.507,N,00320.896,W,059.3,166.5,030624,000.0,W*6B
$GPGGA,150820.212,4744.505,N,00320.895,W,1,12,1.0,0.0,M,0.0,M,,*75
$GPGSA,A,3,01,02,03,04,05,06,07,08,09,10,11,12,1.0,1.0,1.0*30
$GPRMC,150820.212,A,4744.505,N,00320.895,W,059.3,166.5,030624,000.0,W*69
$GPGGA,150820.312,4744.504,N,00320.895,W,1,12,1.0,0.0,M,0.0,M,,*75
$GPGSA,A,3,01,02,03,04,05,06,07,08,09,10,11,12,1.0,1.0,1.0*30
$GPRMC,150820.312,A,4744.504,N,00320.895,W,059.3,166.5,030624,000.0,W*69
$GPGGA,150820.412,4744.502,N,00320.894,W,1,12,1.0,0.0,M,0.0,M,,*75
$GPGSA,A,3,01,02,03,04,05,06,07,08,09,10,11,12,1.0,1.0,1.0*30
$GPRMC,150820.412,A,4744.502,N,00320.894,W,059.3,166.5,030624,000.0,W*69
$GPGGA,150820.512,4744.500,N,00320.894,W,1,12,1.0,0.0,M,0.0,M,,*76
$GPGSA,A,3,01,02,03,04,05,06,07,08,09,10,11,12,1.0,1.0,1.0*30
$GPRMC,150820.512,A,4744.500,N,00320.894,W,059.3,166.5,030624,000.0,W*6A
$GPGGA,150820.612,4744.499,N,00320.894,W,1,12,1.0,0.0,M,0.0,M,,*74
$GPGSA,A,3,01,02,03,04,05,06,07,08,09,10,11,12,1.0,1.0,1.0*30
$GPRMC,150820.612,A,4744.499,N,00320.894,W,059.3,166.5,030624,000.0,W*68
$GPGGA,150820.712,4744.497,N,00320.893,W,1,12,1.0,0.0,M,0.0,M,,*7C
$GPGSA,A,3,01,02,03,04,05,06,07,08,09,10,11,12,1.0,1.0,1.0*30
$GPRMC,150820.712,A,4744.497,N,00320.893,W,059.3,166.5,030624,000.0,W*60
$GPGGA,150820.812,4744.496,N,00320.893,W,1,12,1.0,0.0,M,0.0,M,,*72
$GPGSA,A,3,01,02,03,04,05,06,07,08,09,10,11,12,1.0,1.0,1.0*30
$GPRMC,150820.812,A,4744.496,N,00320.893,W,059.3,166.5,030624,000.0,W*6E
$GPGGA,150820.912,4744.494,N,00320.892,W,1,12,1.0,0.0,M,0.0,M,,*70
$GPGSA,A,3,01,02,03,04,05,06,07,08,09,10,11,12,1.0,1.0,1.0*30
$GPRMC,150820.912,A,4744.494,N,00320.892,W,059.3,166.5,030624,000.0,W*6C
$GPGGA,150821.012,4744.492,N,00320.892,W,1,12,1.0,0.0,M,0.0,M,,*7E
$GPGSA,A,3,01,02,03,04,05,06,07,08,09,10,11,12,1.0,1.0,1.0*30
$GPRMC,150821.012,A,4744.492,N,00320.892,W,059.3,166.5,030624,000.0,W*62
$GPGGA,150821.112,4744.491,N,00320.892,W,1,12,1.0,0.0,M,0.0,M,,*7C
$GPGSA,A,3,01,02,03,04,05,06,07,08,09,10,11,12,1.0,1.0,1.0*30
$GPRMC,150821.112,A,4744.491,N,00320.892,W,059.3,166.5,030624,000.0,W*60
$GPGGA,150821.212,4744.489,N,00320.891,W,1,12,1.0,0.0,M,0.0,M,,*75
$GPGSA,A,3,01,02,03,04,05,06,07,08,09,10,11,12,1.0,1.0,1.0*30
$GPRMC,150821.212,A,4744.489,N,00320.891,W,059.3,166.5,030624,000.0,W*69
$GPGGA,150821.312,4744.487,N,00320.891,W,1,12,1.0,0.0,M,0.0,M,,*7A
$GPGSA,A,3,01,02,03,04,05,06,07,08,09,10,11,12,1.0,1.0,1.0*30
$GPRMC,150821.312,A,4744.487,N,00320.891,W,059.3,166.5,030624,000.0,W*66
$GPGGA,150821.412,4744.486,N,00320.890,W,1,12,1.0,0.0,M,0.0,M,,*7D
$GPGSA,A,3,01,02,03,04,05,06,07,08,09,10,11,12,1.0,1.0,1.0*30
$GPRMC,150821.412,A,4744.486,N,00320.890,W,059.3,166.5,030624,000.0,W*61
$GPGGA,150821.512,4744.484,N,00320.890,W,1,12,1.0,0.0,M,0.0,M,,*7E
$GPGSA,A,3,01,02,03,04,05,06,07,08,09,10,11,12,1.0,1.0,1.0*30
$GPRMC,150821.512,A,4744.484,N,00320.890,W,059.3,166.5,030624,000.0,W*62
$GPGGA,150821.612,4744.483,N,00320.890,W,1,12,1.0,0.0,M,0.0,M,,*7A
$GPGSA,A,3,01,02,03,04,05,06,07,08,09,10,11,12,1.0,1.0,1.0*30
$GPRMC,150821.612,A,4744.483,N,00320.890,W,059.3,166.5,030624,000.0,W*66
$GPGGA,150821.712,4744.481,N,00320.889,W,1,12,1.0,0.0,M,0.0,M,,*71
$GPGSA,A,3,01,02,03,04,05,06,07,08,09,10,11,12,1.0,1.0,1.0*30
$GPRMC,150821.712,A,4744.481,N,00320.889,W,059.3,166.5,030624,000.0,W*6D
$GPGGA,150821.812,4744.479,N,00320.889,W,1,12,1.0,0.0,M,0.0,M,,*79
$GPGSA,A,3,01,02,03,04,05,06,07,08,09,10,11,12,1.0,1.0,1.0*30
$GPRMC,150821.812,A,4744.479,N,00320.889,W,059.3,166.5,030624,000.0,W*65
$GPGGA,150821.912,4744.478,N,00320.889,W,1,12,1.0,0.0,M,0.0,M,,*79
$GPGSA,A,3,01,02,03,04,05,06,07,08,09,10,11,12,1.0,1.0,1.0*30
$GPRMC,150821.912,A,4744.478,N,00320.889,W,059.3,166.5,030624,000.0,W*65
$GPGGA,150822.012,4744.476,N,00320.888,W,1,12,1.0,0.0,M,0.0,M,,*7C
$GPGSA,A,3,01,02,03,04,05,06,07,08,09,10,11,12,1.0,1.0,1.0*30
$GPRMC,150822.012,A,4744.476,N,00320.888,W,059.3,166.5,030624,000.0,W*60
$GPGGA,150822.112,4744.474,N,00320.888,W,1,12,1.0,0.0,M,0.0,M,,*7F
$GPGSA,A,3,01,02,03,04,05,06,07,08,09,10,11,12,1.0,1.0,1.0*30
$GPRMC,150822.112,A,4744.474,N,00320.888,W,059.3,166.5,030624,000.0,W*63
$GPGGA,150822.212,4744.473,N,00320.887,W,1,12,1.0,0.0,M,0.0,M,,*74
$GPGSA,A,3,01,02,03,04,05,06,07,08,09,10,11,12,1.0,1.0,1.0*30
$GPRMC,150822.212,A,4744.473,N,00320.887,W,059.3,166.5,030624,000.0,W*68
$GPGGA,150822.312,4744.471,N,00320.887,W,1,12,1.0,0.0,M,0.0,M,,*77
$GPGSA,A,3,01,02,03,04,05,06,07,08,09,10,11,12,1.0,1.0,1.0*30
$GPRMC,150822.312,A,4744.471,N,00320.887,W,059.3,166.5,030624,000.0,W*6B
$GPGGA,150822.412,4744.470,N,00320.887,W,1,12,1.0,0.0,M,0.0,M,,*71
$GPGSA,A,3,01,02,03,04,05,06,07,08,09,10,11,12,1.0,1.0,1.0*30
$GPRMC,150822.412,A,4744.470,N,00320.887,W,059.3,166.5,030624,000.0,W*6D
$GPGGA,150822.512,4744.468,N,00320.886,W,1,12,1.0,0.0,M,0.0,M,,*78
$GPGSA,A,3,01,02,03,04,05,06,07,08,09,10,11,12,1.0,1.0,1.0*30
$GPRMC,150822.512,A,4744.468,N,00320.886,W,059.3,166.5,030624,000.0,W*64
$GPGGA,150822.612,4744.466,N,00320.886,W,1,12,1.0,0.0,M,0.0,M,,*75
$GPGSA,A,3,01,02,03,04,05,06,07,08,09,10,11,12,1.0,1.0,1.0*30
$GPRMC,150822.612,A,4744.466,N,00320.886,W,059.3,166.5,030624,000.0,W*69
$GPGGA,150822.712,4744.465,N,00320.885,W,1,12,1.0,0.0,M,0.0,M,,*74
$GPGSA,A,3,01,02,03,04,05,06,07,08,09,10,11,12,1.0,1.0,1.0*30
$GPRMC,150822.712,A,4744.465,N,00320.885,W,059.3,166.5,030624,000.0,W*68
$GPGGA,150822.812,4744.463,N,00320.885,W,1,12,1.0,0.0,M,0.0,M,,*7D
$GPGSA,A,3,01,02,03,04,05,06,07,08,09,10,11,12,1.0,1.0,1.0*30
$GPRMC,150822.812,A,4744.463,N,00320.885,W,059.3,166.5,030624,000.0,W*61
$GPGGA,150822.912,4744.461,N,00320.885,W,1,12,1.0,0.0,M,0.0,M,,*7E
$GPGSA,A,3,01,02,03,04,05,06,07,08,09,10,11,12,1.0,1.0,1.0*30
$GPRMC,150822.912,A,4744.461,N,00320.885,W,059.3,166.5,030624,000.0,W*62
$GPGGA,150823.012,4744.460,N,00320.884,W,1,12,1.0,0.0,M,0.0,M,,*76
$GPGSA,A,3,01,02,03,04,05,06,07,08,09,10,11,12,1.0,1.0,1.0*30
$GPRMC,150823.012,A,4744.460,N,00320.884,W,059.3,166.5,030624,000.0,W*6A
$GPGGA,150823.112,4744.458,N,00320.884,W,1,12,1.0,0.0,M,0.0,M,,*7C
$GPGSA,A,3,01,02,03,04,05,06,07,08,09,10,11,12,1.0,1.0,1.0*30
$GPRMC,150823.112,A,4744.458,N,00320.884,W,059.3,166.5,030624,000.0,W*60
$GPGGA,150823.212,4744.457,N,00320.883,W,1,12,1.0,0.0,M,0.0,M,,*77
$GPGSA,A,3,01,02,03,04,05,06,07,08,09,10,11,12,1.0,1.0,1.0*30
$GPRMC,150823.212,A,4744.457,N,00320.883,W,059.3,166.5,030624,000.0,W*6B
$GPGGA,150823.312,4744.455,N,00320.883,W,1,12,1.0,0.0,M,0.0,M,,*74
$GPGSA,A,3,01,02,03,04,05,06,07,08,09,10,11,12,1.0,1.0,1.0*30
$GPRMC,150823.312,A,4744.455,N,00320.883,W,059.3,166.5,030624,000.0,W*68
$GPGGA,150823.412,4744.453,N,00320.883,W,1,12,1.0,0.0,M,0.0,M,,*75
$GPGSA,A,3,01,02,03,04,05,06,07,08,09,10,11,12,1.0,1.0,1.0*30
$GPRMC,150823.412,A,4744.453,N,00320.883,W,059.3,166.5,030624,000.0,W*69
